-- Wednesday, September 07, 2016 9:23:43 AM
$GPRMC,121923,A,4446.9570,N,06350.7119,W,0.0,0.0,070916,19.2,W,A*25
$GPGGA,121923,4446.9570,N,06350.7119,W,1,08,1.2,116.2,M,-23.5,M,,*7B
$PGRME,4.1,M,6.2,M,8.3,M*24
$PGRMZ,381,f,3*11
$PGRMM,NAD83*29
$GPRTE,1,1,c,*37
$SDDPT,8.24,0.00*59
$SDMTW,20.5,C*03
$GPRMC,121925,A,4446.9570,N,06350.7119,W,0.0,0.0,070916,19.2,W,A*23
$GPGGA,121925,4446.9570,N,06350.7119,W,1,08,1.2,116.2,M,-23.5,M,,*7D
$PGRME,3.7,M,5.6,M,7.4,M*2A
$PGRMZ,381,f,3*11
$PGRMM,NAD83*29
$GPRTE,1,1,c,*37
$SDDPT,8.26,0.00*5B
$SDMTW,20.5,C*03
$GPRMC,121927,A,4446.9570,N,06350.7119,W,0.0,0.0,070916,19.2,W,A*21
$GPGGA,121927,4446.9570,N,06350.7119,W,1,08,1.2,116.2,M,-23.5,M,,*7F
$PGRME,3.5,M,5.2,M,6.9,M*20
$PGRMZ,381,f,3*11
$PGRMM,NAD83*29
$GPRTE,1,1,c,*37
$SDDPT,8.26,0.00*5B
$SDMTW,20.5,C*03
$GPRMC,121929,A,4446.9570,N,06350.7119,W,0.0,0.0,070916,19.2,W,A*2F
$GPGGA,121929,4446.9570,N,06350.7119,W,1,08,1.2,116.2,M,-23.5,M,,*71
$PGRME,3.4,M,5.1,M,6.7,M*2C
$PGRMZ,381,f,3*11
$PGRMM,NAD83*29
$GPRTE,1,1,c,*37
$SDDPT,7.98,0.00*51
$SDMTW,20.5,C*03
$GPRMC,121931,A,4446.9570,N,06350.7119,W,0.0,0.0,070916,19.2,W,A*26
$GPGGA,121931,4446.9570,N,06350.7119,W,1,08,1.2,116.2,M,-23.5,M,,*78
$PGRME,3.3,M,5.0,M,6.6,M*2B
$PGRMZ,381,f,3*11
$PGRMM,NAD83*29
$GPRTE,1,1,c,*37
$SDDPT,7.88,0.00*50
$SDMTW,20.5,C*03
$GPRMC,121933,A,4446.9566,N,06350.7127,W,0.0,0.0,070916,19.2,W,A*2E
$GPGGA,121933,4446.9566,N,06350.7127,W,1,08,1.2,116.1,M,-23.5,M,,*73
$PGRME,3.4,M,5.1,M,6.9,M*22
$PGRMZ,381,f,3*11
$PGRMM,NAD83*29
$GPRTE,1,1,c,*37
$SDDPT,7.63,0.00*55
$SDMTW,20.5,C*03
$GPRMC,121935,A,4446.9566,N,06350.7127,W,0.0,0.0,070916,19.2,W,A*28
$GPGGA,121935,4446.9566,N,06350.7127,W,1,08,1.2,116.1,M,-23.5,M,,*75
$PGRME,3.5,M,5.3,M,7.0,M*29
$PGRMZ,381,f,3*11
$PGRMM,NAD83*29
$GPRTE,1,1,c,*37
$SDDPT,7.64,0.00*52
$SDMTW,20.5,C*03
$GPRMC,121937,A,4446.9566,N,06350.7127,W,0.0,0.0,070916,19.2,W,A*2A
$GPGGA,121937,4446.9566,N,06350.7127,W,1,08,1.2,116.1,M,-23.5,M,,*77
$PGRME,3.6,M,5.4,M,7.2,M*2F
$PGRMZ,381,f,3*11
$PGRMM,NAD83*29
$GPRTE,1,1,c,*37
$SDDPT,7.91,0.00*58
$SDMTW,20.5,C*03
$GPRMC,121939,A,4446.9566,N,06350.7127,W,0.0,0.0,070916,19.2,W,A*24
$GPGGA,121939,4446.9566,N,06350.7127,W,1,08,1.2,116.1,M,-23.5,M,,*79
$PGRME,3.7,M,5.5,M,7.4,M*29
$PGRMZ,381,f,3*11
$PGRMM,NAD83*29
$GPRTE,1,1,c,*37
$SDDPT,7.96,0.00*5F
$SDMTW,20.5,C*03
$GPRMC,121941,A,4446.9566,N,06350.7127,W,0.0,0.0,070916,19.2,W,A*2B
$GPGGA,121941,4446.9566,N,06350.7127,W,1,08,1.2,116.1,M,-23.5,M,,*76
$PGRME,3.6,M,5.5,M,7.3,M*2F
$PGRMZ,381,f,3*11
$PGRMM,NAD83*29
$GPRTE,1,1,c,*37
$SDDPT,7.65,0.00*53
$SDMTW,20.5,C*03
$GPRMC,121943,A,4446.9566,N,06350.7127,W,0.0,0.0,070916,19.2,W,A*29
$GPGGA,121943,4446.9566,N,06350.7127,W,1,08,1.2,116.1,M,-23.5,M,,*74
$PGRME,3.5,M,5.2,M,6.9,M*20
$PGRMZ,381,f,3*11
$PGRMM,NAD83*29
$GPRTE,1,1,c,*37
$SDDPT,7.56,0.00*53
$SDMTW,20.5,C*03
$GPRMC,121945,A,4446.9566,N,06350.7127,W,0.2,0.0,070916,19.2,W,A*2D
$GPGGA,121945,4446.9566,N,06350.7127,W,1,08,1.2,116.1,M,-23.5,M,,*72
$PGRME,3.4,M,5.0,M,6.7,M*2D
$PGRMZ,381,f,3*11
$PGRMM,NAD83*29
$GPRTE,1,1,c,*37
$SDDPT,7.55,0.00*50
$SDMTW,20.5,C*03
$GPRMC,121947,A,4446.9566,N,06350.7127,W,0.0,0.0,070916,19.2,W,A*2D
$GPGGA,121947,4446.9566,N,06350.7127,W,1,08,1.2,116.1,M,-23.5,M,,*70
$PGRME,3.3,M,4.9,M,6.6,M*23
$PGRMZ,381,f,3*11
$PGRMM,NAD83*29
$GPRTE,1,1,c,*37
$SDDPT,7.59,0.00*5C
$SDMTW,20.5,C*03
$GPRMC,121949,A,4446.9566,N,06350.7127,W,0.1,0.0,070916,19.2,W,A*22
$GPGGA,121949,4446.9566,N,06350.7127,W,1,08,1.2,116.1,M,-23.5,M,,*7E
$PGRME,3.2,M,4.9,M,6.5,M*21
$PGRMZ,381,f,3*11
$PGRMM,NAD83*29
$GPRTE,1,1,c,*37
$SDDPT,7.51,0.00*54
$SDMTW,20.5,C*03
$GPRMC,121951,A,4446.9566,N,06350.7127,W,0.2,0.0,070916,19.2,W,A*28
$GPGGA,121951,4446.9566,N,06350.7127,W,1,08,1.2,116.1,M,-23.5,M,,*77
$PGRME,3.3,M,4.9,M,6.5,M*20
$PGRMZ,381,f,3*11
$PGRMM,NAD83*29
$GPRTE,1,1,c,*37
$SDDPT,7.59,0.00*5C
$SDMTW,20.5,C*03
$GPRMC,121953,A,4446.9566,N,06350.7127,W,0.2,0.0,070916,19.2,W,A*2A
$GPGGA,121953,4446.9566,N,06350.7127,W,1,08,1.2,116.1,M,-23.5,M,,*75
$PGRME,3.3,M,5.0,M,6.7,M*2A
$PGRMZ,381,f,3*11
$PGRMM,NAD83*29
$GPRTE,1,1,c,*37
$SDDPT,7.59,0.00*5C
$SDMTW,20.5,C*03
$GPRMC,121955,A,4446.9566,N,06350.7127,W,0.2,0.0,070916,19.2,W,A*2C
$GPGGA,121955,4446.9566,N,06350.7127,W,1,07,1.2,116.1,M,-23.5,M,,*7C
$PGRME,3.7,M,5.5,M,7.3,M*2E
$PGRMZ,381,f,3*11
$PGRMM,NAD83*29
$GPRTE,1,1,c,*37
$SDDPT,7.59,0.00*5C
$SDMTW,20.5,C*03
$GPRMC,121957,A,4446.9566,N,06350.7127,W,0.3,220.6,070916,19.2,W,A*29
$GPGGA,121957,4446.9566,N,06350.7127,W,1,08,1.2,116.1,M,-23.5,M,,*71
$PGRME,3.8,M,5.8,M,7.7,M*28
$PGRMZ,381,f,3*11
$PGRMM,NAD83*29
$GPRTE,1,1,c,*37
$SDDPT,7.59,0.00*5C
$SDMTW,20.5,C*03
$GPRMC,121959,A,4446.9566,N,06350.7127,W,0.2,0.0,070916,19.2,W,A*20
$GPGGA,121959,4446.9566,N,06350.7127,W,1,08,1.2,116.1,M,-23.5,M,,*7F
$PGRME,3.6,M,5.4,M,7.3,M*2E
$PGRMZ,381,f,3*11
$PGRMM,NAD83*29
$GPRTE,1,1,c,*37
$SDDPT,7.55,0.00*50
$SDMTW,20.5,C*03
$GPRTE,1,1,c,*37
$SDDPT,6.20,0.00*53
$SDMTW,20.6,C*00
$GPRMC,122117,A,4446.9560,N,06350.7135,W,0.9,15.0,070916,19.2,W,D*1E
$GPGGA,122117,4446.9560,N,06350.7135,W,2,08,1.2,117.4,M,-23.5,M,,*7C
$PGRME,3.0,M,4.5,M,6.0,M*2A
$PGRMZ,385,f,3*15
$PGRMM,NAD83*29
$GPRTE,1,1,c,*37
$SDDPT,6.66,0.00*51
$SDMTW,20.6,C*00
$GPRMC,122119,A,4446.9560,N,06350.7141,W,1.0,19.2,070916,19.2,W,D*15
$GPGGA,122119,4446.9560,N,06350.7141,W,2,09,1.1,116.8,M,-23.5,M,,*7E
$PGRME,2.9,M,4.3,M,5.8,M*2F
$PGRMZ,383,f,3*13
$PGRMM,NAD83*29
$GPRTE,1,1,c,*37
$SDDPT,6.80,0.00*59
$SDMTW,20.6,C*00
$GPRMC,122121,A,4446.9563,N,06350.7140,W,1.0,42.3,070916,19.2,W,D*13
$GPGGA,122121,4446.9563,N,06350.7140,W,2,09,1.1,116.3,M,-23.5,M,,*7C
$PGRME,2.8,M,4.2,M,5.7,M*20
$PGRMZ,382,f,3*12
$PGRMM,NAD83*29
$GPRTE,1,1,c,*37
$SDDPT,7.29,0.00*5B
$SDMTW,20.6,C*00
$GPRMC,122123,A,4446.9566,N,06350.7137,W,1.2,46.8,070916,19.2,W,D*19
$GPGGA,122123,4446.9566,N,06350.7137,W,2,09,1.1,116.2,M,-23.5,M,,*7A
$PGRME,2.8,M,4.2,M,5.6,M*21
$PGRMZ,381,f,3*11
$PGRMM,NAD83*29
$GPRTE,1,1,c,*37
$SDDPT,7.09,0.00*59
$SDMTW,20.6,C*00
$GPRMC,122125,A,4446.9568,N,06350.7134,W,1.1,54.8,070916,19.2,W,D*12
$GPGGA,122125,4446.9568,N,06350.7134,W,2,09,1.1,116.4,M,-23.5,M,,*77
$PGRME,2.7,M,4.1,M,5.5,M*2E
$PGRMZ,382,f,3*12
$PGRMM,NAD83*29
$GPRTE,1,1,c,*37
$SDDPT,6.74,0.00*52
$SDMTW,20.6,C*00
$GPRMC,122127,A,4446.9568,N,06350.7134,W,1.0,58.9,070916,19.2,W,D*1C
$GPGGA,122127,4446.9568,N,06350.7134,W,2,08,1.2,116.3,M,-23.5,M,,*70
$PGRME,2.7,M,4.1,M,5.4,M*2F
$PGRMZ,382,f,3*12
$PGRMM,NAD83*29
$GPRTE,1,1,c,*37
$SDDPT,6.26,0.00*55
$SDMTW,20.6,C*00
$GPRMC,122129,A,4446.9567,N,06350.7131,W,0.7,71.8,070916,19.2,W,D*14
$GPGGA,122129,4446.9567,N,06350.7131,W,2,08,1.2,115.2,M,-23.5,M,,*76
$PGRME,2.7,M,4.0,M,5.3,M*29
$PGRMZ,378,f,3*17
$PGRMM,NAD83*29
$GPRTE,1,1,c,*37
$SDDPT,6.75,0.00*53
$SDMTW,20.6,C*00
$GPRMC,122131,A,4446.9568,N,06350.7128,W,0.7,58.5,070916,19.2,W,D*1C
$GPGGA,122131,4446.9568,N,06350.7128,W,2,08,1.2,114.5,M,-23.5,M,,*7E
$PGRME,2.6,M,4.0,M,5.3,M*28
$PGRMZ,376,f,3*19
$PGRMM,NAD83*29
$GPRTE,1,1,c,*37
$SDDPT,6.84,0.00*5D
$SDMTW,20.6,C*00
$GPRMC,122133,A,4446.9569,N,06350.7126,W,0.5,28.2,070916,19.2,W,D*13
$GPGGA,122133,4446.9569,N,06350.7126,W,2,08,1.2,114.4,M,-23.5,M,,*72
$PGRME,2.6,M,3.9,M,5.3,M*26
$PGRMZ,375,f,3*1A
$PGRMM,NAD83*29
$GPRTE,1,1,c,*37
$SDDPT,6.82,0.00*5B
$SDMTW,20.6,C*00
$GPRMC,122135,A,4446.9569,N,06350.7126,W,0.6,3.4,070916,19.2,W,D*29
$GPGGA,122135,4446.9569,N,06350.7126,W,2,08,1.2,114.4,M,-23.5,M,,*74
$PGRME,2.6,M,3.9,M,5.2,M*27
$PGRMZ,375,f,3*1A
$PGRMM,NAD83*29
$GPRTE,1,1,c,*37
$SDDPT,6.81,0.00*58
$SDMTW,20.6,C*00
$GPRMC,122137,A,4446.9571,N,06350.7126,W,0.7,344.6,070916,19.2,W,D*21
$GPGGA,122137,4446.9571,N,06350.7126,W,2,08,1.2,114.6,M,-23.5,M,,*7D
$PGRME,2.6,M,3.9,M,5.2,M*27
$PGRMZ,376,f,3*19
$PGRMM,NAD83*29
$GPRTE,1,1,c,*37
$SDDPT,7.17,0.00*56
$SDMTW,20.6,C*00
$GPRMC,122139,A,4446.9575,N,06350.7129,W,0.9,333.5,070916,19.2,W,D*29
$GPGGA,122139,4446.9575,N,06350.7129,W,2,08,1.2,114.7,M,-23.5,M,,*79
$PGRME,2.6,M,3.9,M,5.2,M*27
$PGRMZ,376,f,3*19
$PGRMM,NAD83*29
$GPRTE,1,1,c,*37
$SDDPT,7.45,0.00*51
$SDMTW,20.6,C*00
$GPRMC,122141,A,4446.9580,N,06350.7135,W,1.2,325.0,070916,19.2,W,D*29
$GPGGA,122141,4446.9580,N,06350.7135,W,2,08,1.2,114.4,M,-23.5,M,,*72
$PGRME,2.6,M,3.9,M,5.2,M*27
$PGRMZ,375,f,3*1A
$PGRMM,NAD83*29
$GPRTE,1,1,c,*37
$SDDPT,7.71,0.00*56
$SDMTW,20.6,C*00
$GPRMC,122143,A,4446.9585,N,06350.7142,W,1.4,317.4,070916,19.2,W,D*2D
$GPGGA,122143,4446.9585,N,06350.7142,W,2,08,1.2,114.1,M,-23.5,M,,*70
$PGRME,2.6,M,3.9,M,5.2,M*27
$PGRMZ,374,f,3*1B
$PGRMM,NAD83*29
$GPRTE,1,1,c,*37
$SDDPT,7.98,0.00*51
$SDMTW,20.6,C*00
$GPRMC,122145,A,4446.9591,N,06350.7150,W,1.5,309.2,070916,19.2,W,D*25
$GPGGA,122145,4446.9591,N,06350.7150,W,2,08,1.2,114.3,M,-23.5,M,,*72
$PGRME,2.6,M,3.9,M,5.2,M*27
$PGRMZ,375,f,3*1A
$PGRMM,NAD83*29
$GPRTE,1,1,c,*37
$SDDPT,8.49,0.00*52
$SDMTW,20.6,C*00
$GPRMC,122147,A,4446.9598,N,06350.7159,W,1.5,311.5,070916,19.2,W,D*29
$GPGGA,122147,4446.9598,N,06350.7159,W,2,08,1.2,114.7,M,-23.5,M,,*74
$PGRME,2.6,M,3.9,M,5.2,M*27
$PGRMZ,376,f,3*19
$PGRMM,NAD83*29
$GPRTE,1,1,c,*37
$SDDPT,8.33,0.00*5F
$SDMTW,20.6,C*00
$GPRMC,122149,A,4446.9604,N,06350.7169,W,1.6,304.5,070916,19.2,W,D*25
$GPGGA,122149,4446.9604,N,06350.7169,W,2,08,1.2,115.1,M,-23.5,M,,*78
$PGRME,2.6,M,3.9,M,5.2,M*27
$PGRMZ,378,f,3*17
$PGRMM,NAD83*29
$GPRTE,1,1,c,*37
$SDDPT,8.04,0.00*5B
$SDMTW,20.6,C*00
$GPRMC,122151,A,4446.9609,N,06350.7182,W,1.7,302.2,070916,19.2,W,D*24
$GPGGA,122151,4446.9609,N,06350.7182,W,2,08,1.2,115.3,M,-23.5,M,,*7B
$PGRME,2.6,M,3.9,M,5.1,M*24
$PGRMZ,378,f,3*17
$PGRMM,NAD83*29
$GPRTE,1,1,c,*37
$SDDPT,7.65,0.00*53
$SDMTW,20.6,C*00
$GPRMC,122153,A,4446.9614,N,06350.7196,W,1.8,303.4,070916,19.2,W,D*27
$GPGGA,122153,4446.9614,N,06350.7196,W,2,08,1.2,115.6,M,-23.5,M,,*75
$PGRME,2.6,M,3.9,M,5.1,M*24
$PGRMZ,379,f,3*16
$PGRMM,NAD83*29
$GPRTE,1,1,c,*37
$SDDPT,7.50,0.00*55
$SDMTW,20.6,C*00
$GPRMC,122155,A,4446.9621,N,06350.7209,W,1.8,301.7,070916,19.2,W,D*23
$GPGGA,122155,4446.9621,N,06350.7209,W,2,08,1.2,115.6,M,-23.5,M,,*70
$PGRME,2.6,M,3.8,M,5.1,M*25
$PGRMZ,379,f,3*16
$PGRMM,NAD83*29
$GPRTE,1,1,c,*37
$SDDPT,7.54,0.00*51
$SDMTW,20.6,C*00
$GPRMC,122157,A,4446.9626,N,06350.7221,W,1.8,298.5,070916,19.2,W,D*2F
$GPGGA,122157,4446.9626,N,06350.7221,W,2,08,1.2,115.7,M,-23.5,M,,*7E
$PGRME,2.6,M,3.9,M,5.1,M*24
$PGRMZ,380,f,3*10
$PGRMM,NAD83*29
$GPRTE,1,1,c,*37
$SDDPT,7.81,0.00*59
$SDMTW,20.6,C*00
$GPRMC,122159,A,4446.9632,N,06350.7234,W,2.0,300.4,070916,19.2,W,D*2A
$GPGGA,122159,4446.9632,N,06350.7234,W,2,08,1.2,115.9,M,-23.5,M,,*7F
$PGRME,2.6,M,3.9,M,5.1,M*24
$PGRMZ,380,f,3*10
$PGRMM,NAD83*29
$GPRTE,1,1,c,*37
$SDDPT,7.95,0.00*5C
$SDMTW,20.6,C*00
$GPRMC,122201,A,4446.9636,N,06350.7248,W,1.9,300.8,070916,19.2,W,D*2D
$GPGGA,122201,4446.9636,N,06350.7248,W,2,08,1.2,115.7,M,-23.5,M,,*70
$PGRME,2.6,M,3.9,M,5.1,M*24
$PGRMZ,380,f,3*10
$PGRMM,NAD83*29
$GPRTE,1,1,c,*37
$SDDPT,8.01,0.00*5E
$SDMTW,20.6,C*00
$GPRMC,122203,A,4446.9641,N,06350.7262,W,2.0,298.2,070916,19.2,W,D*27
$GPGGA,122203,4446.9641,N,06350.7262,W,2,08,1.2,115.5,M,-23.5,M,,*78
$PGRME,2.6,M,3.8,M,5.1,M*25
$PGRMZ,379,f,3*16
$PGRMM,NAD83*29
$GPRTE,1,1,c,*37
$SDDPT,7.90,0.00*59
$SDMTW,20.6,C*00
$GPRMC,122205,A,4446.9645,N,06350.7277,W,2.0,301.6,070916,19.2,W,D*24
$GPGGA,122205,4446.9645,N,06350.7277,W,2,08,1.2,115.3,M,-23.5,M,,*78
$PGRME,2.6,M,3.8,M,5.1,M*25
$PGRMZ,378,f,3*17
$PGRMM,NAD83*29
$GPRTE,1,1,c,*37
$SDDPT,8.49,0.00*52
$SDMTW,20.6,C*00
$GPRMC,122207,A,4446.9651,N,06350.7290,W,2.0,302.3,070916,19.2,W,D*2C
$GPGGA,122207,4446.9651,N,06350.7290,W,2,08,1.2,115.3,M,-23.5,M,,*76
$PGRME,2.6,M,3.8,M,5.1,M*25
$PGRMZ,378,f,3*17
$PGRMM,NAD83*29
$GPRTE,1,1,c,*37
$SDDPT,8.29,0.00*54
$SDMTW,20.6,C*00
$GPRMC,122209,A,4446.9657,N,06350.7303,W,2.2,301.6,070916,19.2,W,D*2B
$GPGGA,122209,4446.9657,N,06350.7303,W,2,08,1.2,115.4,M,-23.5,M,,*72
$PGRME,2.6,M,3.8,M,5.1,M*25
$PGRMZ,379,f,3*16
$PGRMM,NAD83*29
$GPRTE,1,1,c,*37
$SDDPT,7.88,0.00*50
$SDMTW,20.6,C*00
$GPRMC,122211,A,4446.9663,N,06350.7316,W,2.1,303.0,070916,19.2,W,D*26
$GPGGA,122211,4446.9663,N,06350.7316,W,2,08,1.2,115.6,M,-23.5,M,,*7A
$PGRME,2.6,M,3.9,M,5.2,M*27
$PGRMZ,379,f,3*16
$PGRMM,NAD83*29
$GPRTE,1,1,c,*37
$SDDPT,7.98,0.00*51
$SDMTW,20.6,C*00
$GPRMC,122213,A,4446.9668,N,06350.7331,W,2.1,303.4,070916,19.2,W,D*2E
$GPGGA,122213,4446.9668,N,06350.7331,W,2,08,1.2,115.7,M,-23.5,M,,*77
$PGRME,2.6,M,3.9,M,5.2,M*27
$PGRMZ,379,f,3*16
$PGRMM,NAD83*29
$GPRTE,1,1,c,*37
$SDDPT,7.92,0.00*5B
$SDMTW,20.6,C*00
$GPRMC,122215,A,4446.9675,N,06350.7344,W,2.4,306.8,070916,19.2,W,D*2A
$GPGGA,122215,4446.9675,N,06350.7344,W,2,08,1.2,115.7,M,-23.5,M,,*7F
$PGRME,2.6,M,3.9,M,5.3,M*26
$PGRMZ,380,f,3*10
$PGRMM,NAD83*29
$GPRTE,1,1,c,*37
$SDDPT,7.90,0.00*59
$SDMTW,20.6,C*00
$GPRMC,122217,A,4446.9684,N,06350.7359,W,3.0,315.0,070916,19.2,W,D*25
$GPGGA,122217,4446.9684,N,06350.7359,W,2,08,1.2,115.6,M,-23.5,M,,*7E
$PGRME,2.6,M,4.0,M,5.3,M*28
$PGRMZ,379,f,3*16
$PGRMM,NAD83*29
$GPRTE,1,1,c,*37
$SDDPT,8.17,0.00*59
$SDMTW,20.6,C*00
$GPRMC,122219,A,4446.9698,N,06350.7376,W,3.7,323.0,070916,19.2,W,D*29
$GPGGA,122219,4446.9698,N,06350.7376,W,2,08,1.2,115.3,M,-23.5,M,,*75
$PGRME,2.6,M,3.9,M,5.3,M*26
$PGRMZ,378,f,3*17
$PGRMM,NAD83*29
$GPRTE,1,1,c,*37
$SDDPT,8.45,0.00*5E
$SDMTW,20.6,C*00
$GPRMC,122221,A,4446.9717,N,06350.7392,W,4.4,330.7,070916,19.2,W,D*2F
$GPGGA,122221,4446.9717,N,06350.7392,W,2,08,1.2,115.2,M,-23.5,M,,*73
$PGRME,2.6,M,3.9,M,5.2,M*27
$PGRMZ,378,f,3*17
$PGRMM,NAD83*29
$GPRTE,1,1,c,*37
$SDDPT,8.33,0.00*5F
$SDMTW,20.6,C*00
$GPRMC,122223,A,4446.9739,N,06350.7408,W,4.8,331.7,070916,19.2,W,D*28
$GPGGA,122223,4446.9739,N,06350.7408,W,2,08,1.2,114.8,M,-23.5,M,,*72
$PGRME,2.6,M,3.9,M,5.2,M*27
$PGRMZ,377,f,3*18
$PGRMM,NAD83*29
$GPRTE,1,1,c,*37
$SDDPT,8.47,0.00*5C
$SDMTW,20.6,C*00
$GPRMC,122225,A,4446.9763,N,06350.7425,W,5.0,333.6,070916,19.2,W,D*24
$GPGGA,122225,4446.9763,N,06350.7425,W,2,08,1.2,114.5,M,-23.5,M,,*79
$PGRME,2.6,M,3.9,M,5.2,M*27
$PGRMZ,376,f,3*19
$PGRMM,NAD83*29
$GPRTE,1,1,c,*37
$SDDPT,9.64,0.00*5C
$SDMTW,20.6,C*00
$GPRMC,122227,A,4446.9788,N,06350.7442,W,5.1,333.4,070916,19.2,W,D*21
$GPGGA,122227,4446.9788,N,06350.7442,W,2,08,1.2,114.3,M,-23.5,M,,*79
$PGRME,2.6,M,3.9,M,5.2,M*27
$PGRMZ,375,f,3*1A
$PGRMM,NAD83*29
$GPRTE,1,1,c,*37
$SDDPT,9.90,0.00*57
$SDMTW,20.6,C*00
$GPRMC,122229,A,4446.9814,N,06350.7459,W,5.2,335.3,070916,19.2,W,D*2D
$GPGGA,122229,4446.9814,N,06350.7459,W,2,08,1.2,114.2,M,-23.5,M,,*76
$PGRME,2.6,M,3.9,M,5.2,M*27
$PGRMZ,375,f,3*1A
$PGRMM,NAD83*29
$GPRTE,1,1,c,*37
$SDDPT,10.60,0.00*60
$SDMTW,20.6,C*00
$GPRMC,122231,A,4446.9841,N,06350.7474,W,5.2,334.5,070916,19.2,W,D*2C
$GPGGA,122231,4446.9841,N,06350.7474,W,2,08,1.2,114.2,M,-23.5,M,,*70
$PGRME,2.6,M,3.9,M,5.1,M*24
$PGRMZ,375,f,3*1A
$PGRMM,NAD83*29
$GPRTE,1,1,c,*37
$SDDPT,11.23,0.00*66
$SDMTW,20.6,C*00
$GPRMC,122233,A,4446.9868,N,06350.7492,W,5.2,335.7,070916,19.2,W,D*2E
$GPGGA,122233,4446.9868,N,06350.7492,W,2,09,1.1,114.0,M,-23.5,M,,*71
$PGRME,2.6,M,3.9,M,5.1,M*24
$PGRMZ,374,f,3*1B
$PGRMM,NAD83*29
$GPRTE,1,1,c,*37
$SDDPT,13.28,0.00*6F
$SDMTW,20.6,C*00
$GPRMC,122235,A,4446.9894,N,06350.7509,W,5.3,336.2,070916,19.2,W,D*2F
$GPGGA,122235,4446.9894,N,06350.7509,W,2,09,1.1,113.8,M,-23.5,M,,*78
$PGRME,2.6,M,3.8,M,5.1,M*25
$PGRMZ,373,f,3*1C
$PGRMM,NAD83*29
$GPRTE,1,1,c,*37
$SDDPT,14.48,0.00*6E
$SDMTW,20.6,C*00
$GPRMC,122237,A,4446.9921,N,06350.7525,W,5.4,337.0,070916,19.2,W,D*28
$GPGGA,122237,4446.9921,N,06350.7525,W,2,09,1.1,113.8,M,-23.5,M,,*7B
$PGRME,2.6,M,3.8,M,5.1,M*25
$PGRMZ,373,f,3*1C
$PGRMM,NAD83*29
$GPRTE,1,1,c,*37
$SDDPT,15.75,0.00*61
$SDMTW,20.6,C*00
$GPRMC,122239,A,4446.9948,N,06350.7541,W,5.3,335.9,070916,19.2,W,D*27
$GPGGA,122239,4446.9948,N,06350.7541,W,2,09,1.1,113.6,M,-23.5,M,,*76
$PGRME,2.6,M,3.8,M,5.1,M*25
$PGRMZ,373,f,3*1C
$PGRMM,NAD83*29
$GPRTE,1,1,c,*37
$SDDPT,16.38,0.00*6B
$SDMTW,20.6,C*00
$GPRMC,122241,A,4446.9975,N,06350.7554,W,5.3,337.4,070916,19.2,W,D*2D
$GPGGA,122241,4446.9975,N,06350.7554,W,2,09,1.1,113.4,M,-23.5,M,,*71
$PGRME,2.6,M,3.8,M,5.1,M*25
$PGRMZ,372,f,3*1D
$PGRMM,NAD83*29
$GPRTE,1,1,c,*37
$SDDPT,16.60,0.00*66
$SDMTW,20.6,C*00
$GPRMC,122243,A,4447.0003,N,06350.7569,W,5.4,338.3,070916,19.2,W,D*2E
$GPGGA,122243,4447.0003,N,06350.7569,W,2,09,1.1,113.3,M,-23.5,M,,*7A
$PGRME,2.6,M,3.8,M,5.1,M*25
$PGRMZ,372,f,3*1D
$PGRMM,NAD83*29
$GPRTE,1,1,c,*37
$SDDPT,16.49,0.00*6D
$SDMTW,20.6,C*00
$GPRMC,122245,A,4447.0030,N,06350.7585,W,5.6,337.9,070916,19.2,W,D*2D
$GPGGA,122245,4447.0030,N,06350.7585,W,2,09,1.1,113.3,M,-23.5,M,,*7E
$PGRME,2.6,M,3.8,M,5.1,M*25
$PGRMZ,372,f,3*1D
$PGRMM,NAD83*29
$GPRTE,1,1,c,*37
$SDDPT,16.21,0.00*63
$SDMTW,20.6,C*00
$GPRMC,122247,A,4447.0059,N,06350.7602,W,5.7,336.9,070916,19.2,W,D*2C
$GPGGA,122247,4447.0059,N,06350.7602,W,2,09,1.1,113.3,M,-23.5,M,,*7F
$PGRME,2.6,M,3.8,M,5.1,M*25
$PGRMZ,372,f,3*1D
$PGRMM,NAD83*29
$GPRTE,1,1,c,*37
$SDDPT,15.82,0.00*69
$SDMTW,20.6,C*00
$GPRMC,122249,A,4447.0088,N,06350.7618,W,5.7,337.5,070916,19.2,W,D*28
$GPGGA,122249,4447.0088,N,06350.7618,W,2,09,1.1,113.2,M,-23.5,M,,*77
$PGRME,2.6,M,3.8,M,5.1,M*25
$PGRMZ,371,f,3*1E
$PGRMM,NAD83*29
$GPRTE,1,1,c,*37
$SDDPT,15.32,0.00*62
$SDMTW,20.6,C*00
$GPRMC,122251,A,4447.0117,N,06350.7634,W,5.8,337.5,070916,19.2,W,D*27
$GPGGA,122251,4447.0117,N,06350.7634,W,2,10,1.0,113.1,M,-23.5,M,,*7D
$PGRME,2.6,M,3.8,M,5.1,M*25
$PGRMZ,371,f,3*1E
$PGRMM,NAD83*29
$GPRTE,1,1,c,*37
$SDDPT,12.76,0.00*65
$SDMTW,20.6,C*00
$GPRMC,122253,A,4447.0145,N,06350.7649,W,5.8,336.9,070916,19.2,W,D*25
$GPGGA,122253,4447.0145,N,06350.7649,W,2,10,1.0,113.0,M,-23.5,M,,*73
$PGRME,2.6,M,3.8,M,5.1,M*25
$PGRMZ,371,f,3*1E
$PGRMM,NAD83*29
$GPRTE,1,1,c,*37
$SDDPT,11.44,0.00*67
$SDMTW,20.6,C*00
$GPRMC,122255,A,4447.0173,N,06350.7668,W,5.8,336.8,070916,19.2,W,D*24
$GPGGA,122255,4447.0173,N,06350.7668,W,2,10,1.0,112.7,M,-23.5,M,,*75
$PGRME,2.6,M,3.8,M,5.1,M*25
$PGRMZ,370,f,3*1F
$PGRMM,NAD83*29
$GPRTE,1,1,c,*37
$SDDPT,10.51,0.00*62
$SDMTW,20.6,C*00
$GPRMC,122257,A,4447.0203,N,06350.7685,W,5.9,337.3,070916,19.2,W,D*2A
$GPGGA,122257,4447.0203,N,06350.7685,W,2,10,1.0,112.7,M,-23.5,M,,*70
$PGRME,2.6,M,3.8,M,5.1,M*25
$PGRMZ,370,f,3*1F
$PGRMM,NAD83*29
$GPRTE,1,1,c,*37
$SDDPT,10.03,0.00*65
$SDMTW,20.6,C*00
$GPRMC,122259,A,4447.0233,N,06350.7703,W,5.9,336.0,070916,19.2,W,D*2A
$GPGGA,122259,4447.0233,N,06350.7703,W,2,10,1.0,112.8,M,-23.5,M,,*7D
$PGRME,2.6,M,3.8,M,5.1,M*25
$PGRMZ,370,f,3*1F
$PGRMM,NAD83*29
$GPRTE,1,1,c,*37
$SDDPT,10.05,0.00*63
$SDMTW,20.6,C*00
$GPRMC,122301,A,4447.0262,N,06350.7719,W,5.8,337.4,070916,19.2,W,D*2D
$GPGGA,122301,4447.0262,N,06350.7719,W,2,10,1.0,112.8,M,-23.5,M,,*7E
$PGRME,2.6,M,3.8,M,5.1,M*25
$PGRMZ,370,f,3*1F
$PGRMM,NAD83*29
$GPRTE,1,1,c,*37
$SDDPT,10.98,0.00*67
$SDMTW,20.6,C*00
$GPRMC,122303,A,4447.0292,N,06350.7735,W,5.9,338.0,070916,19.2,W,D*24
$GPGGA,122303,4447.0292,N,06350.7735,W,2,11,1.0,112.9,M,-23.5,M,,*7D
$PGRME,2.6,M,3.8,M,5.1,M*25
$PGRMZ,370,f,3*1F
$PGRMM,NAD83*29
$GPRTE,1,1,c,*37
$SDDPT,11.61,0.00*60
$SDMTW,20.6,C*00
$GPRMC,122305,A,4447.0322,N,06350.7751,W,5.9,340.7,070916,19.2,W,D*22
$GPGGA,122305,4447.0322,N,06350.7751,W,2,10,1.0,112.9,M,-23.5,M,,*72
$PGRME,2.6,M,3.8,M,5.1,M*25
$PGRMZ,370,f,3*1F
$PGRMM,NAD83*29
$GPRTE,1,1,c,*37
$SDDPT,11.83,0.00*6C
$SDMTW,20.6,C*00
$GPRMC,122307,A,4447.0353,N,06350.7766,W,5.8,343.6,070916,19.2,W,D*21
$GPGGA,122307,4447.0353,N,06350.7766,W,2,10,1.0,112.8,M,-23.5,M,,*73
$PGRME,2.6,M,3.8,M,5.1,M*25
$PGRMZ,370,f,3*1F
$PGRMM,NAD83*29
$GPRTE,1,1,c,*37
$SDDPT,12.20,0.00*66
$SDMTW,20.6,C*00
$GPRMC,122309,A,4447.0384,N,06350.7779,W,5.9,345.8,070916,19.2,W,D*22
$GPGGA,122309,4447.0384,N,06350.7779,W,2,10,1.0,112.6,M,-23.5,M,,*77
$PGRME,2.6,M,3.8,M,5.1,M*25
$PGRMZ,369,f,3*17
$PGRMM,NAD83*29
$GPRTE,1,1,c,*37
$SDDPT,12.71,0.00*62
$SDMTW,20.6,C*00
$GPRMC,122311,A,4447.0416,N,06350.7790,W,5.9,348.1,070916,19.2,W,D*24
$GPGGA,122311,4447.0416,N,06350.7790,W,2,10,1.0,112.6,M,-23.5,M,,*75
$PGRME,2.6,M,3.8,M,5.1,M*25
$PGRMZ,369,f,3*17
$PGRMM,NAD83*29
$GPRTE,1,1,c,*37
$SDDPT,13.29,0.00*6E
$SDMTW,20.6,C*00
$GPRMC,122313,A,4447.0448,N,06350.7798,W,5.9,350.8,070916,19.2,W,D*25
$GPGGA,122313,4447.0448,N,06350.7798,W,2,10,1.0,112.5,M,-23.5,M,,*77
$PGRME,2.6,M,3.8,M,5.1,M*25
$PGRMZ,369,f,3*17
$PGRMM,NAD83*29
$GPRTE,1,1,c,*37
$SDDPT,13.76,0.00*64
$SDMTW,20.6,C*00
$GPRMC,122315,A,4447.0479,N,06350.7806,W,5.8,352.8,070916,19.2,W,D*2A
$GPGGA,122315,4447.0479,N,06350.7806,W,2,10,1.0,112.5,M,-23.5,M,,*7B
$PGRME,2.6,M,3.8,M,5.1,M*25
$PGRMZ,369,f,3*17
$PGRMM,NAD83*29
$GPRTE,1,1,c,*37
$SDDPT,13.93,0.00*6F
$SDMTW,20.6,C*00
$GPRMC,122317,A,4447.0511,N,06350.7811,W,5.8,355.9,070916,19.2,W,D*27
$GPGGA,122317,4447.0511,N,06350.7811,W,2,10,1.0,112.2,M,-23.5,M,,*77
$PGRME,2.6,M,3.8,M,5.1,M*25
$PGRMZ,368,f,3*16
$PGRMM,NAD83*29
$GPRTE,1,1,c,*37
$SDDPT,13.89,0.00*64
$SDMTW,20.6,C*00
$GPRMC,122319,A,4447.0543,N,06350.7811,W,5.9,358.5,070916,19.2,W,D*2E
$GPGGA,122319,4447.0543,N,06350.7811,W,2,10,1.0,112.0,M,-23.5,M,,*7C
$PGRME,2.6,M,3.8,M,5.1,M*25
$PGRMZ,367,f,3*19
$PGRMM,NAD83*29
$GPRTE,1,1,c,*37
$SDDPT,13.76,0.00*64
$SDMTW,20.6,C*00
$GPRMC,122321,A,4447.0576,N,06350.7811,W,5.9,0.8,070916,19.2,W,D*20
$GPGGA,122321,4447.0576,N,06350.7811,W,2,10,1.0,112.0,M,-23.5,M,,*71
$PGRME,2.6,M,3.8,M,5.1,M*25
$PGRMZ,367,f,3*19
$PGRMM,NAD83*29
$GPRTE,1,1,c,*37
$SDDPT,13.54,0.00*64
$SDMTW,20.6,C*00
$GPRMC,122323,A,4447.0609,N,06350.7810,W,6.0,2.9,070916,19.2,W,D*21
$GPGGA,122323,4447.0609,N,06350.7810,W,2,10,1.0,112.1,M,-23.5,M,,*78
$PGRME,2.6,M,3.8,M,5.1,M*25
$PGRMZ,368,f,3*16
$PGRMM,NAD83*29
$GPRTE,1,1,c,*37
$SDDPT,13.34,0.00*62
$SDMTW,20.6,C*00
$GPRMC,122325,A,4447.0642,N,06350.7807,W,5.9,5.5,070916,19.2,W,D*2F
$GPGGA,122325,4447.0642,N,06350.7807,W,2,10,1.0,112.2,M,-23.5,M,,*74
$PGRME,2.6,M,3.8,M,5.1,M*25
$PGRMZ,368,f,3*16
$PGRMM,NAD83*29
$GPRTE,1,1,c,*37
$SDDPT,13.19,0.00*6D
$SDMTW,20.6,C*00
$GPRMC,122327,A,4447.0674,N,06350.7803,W,5.9,6.7,070916,19.2,W,D*2D
$GPGGA,122327,4447.0674,N,06350.7803,W,2,10,1.0,112.2,M,-23.5,M,,*77
$PGRME,2.6,M,3.8,M,5.1,M*25
$PGRMZ,368,f,3*16
$PGRMM,NAD83*29
$GPRTE,1,1,c,*37
$SDDPT,13.06,0.00*63
$SDMTW,20.6,C*00
$GPRMC,122329,A,4447.0705,N,06350.7796,W,5.9,8.7,070916,19.2,W,D*29
$GPGGA,122329,4447.0705,N,06350.7796,W,2,10,1.0,111.9,M,-23.5,M,,*75
$PGRME,2.6,M,3.8,M,5.1,M*25
$PGRMZ,367,f,3*19
$PGRMM,NAD83*29
$GPRTE,1,1,c,*37
$SDDPT,12.85,0.00*69
$SDMTW,20.6,C*00
$GPRMC,122331,A,4447.0737,N,06350.7788,W,5.9,10.3,070916,19.2,W,D*13
$GPGGA,122331,4447.0737,N,06350.7788,W,2,10,1.0,111.7,M,-23.5,M,,*7C
$PGRME,2.6,M,3.8,M,5.1,M*25
$PGRMZ,367,f,3*19
$PGRMM,NAD83*29
$GPRTE,1,1,c,*37
$SDDPT,12.63,0.00*61
$SDMTW,20.6,C*00
$GPRMC,122333,A,4447.0768,N,06350.7781,W,5.9,10.1,070916,19.2,W,D*10
$GPGGA,122333,4447.0768,N,06350.7781,W,2,10,1.0,111.9,M,-23.5,M,,*73
$PGRME,2.6,M,3.8,M,5.1,M*25
$PGRMZ,367,f,3*19
$PGRMM,NAD83*29
$GPRTE,1,1,c,*37
$SDDPT,12.31,0.00*66
$SDMTW,20.6,C*00
$GPRMC,122335,A,4447.0800,N,06350.7772,W,5.8,14.3,070916,19.2,W,D*1C
$GPGGA,122335,4447.0800,N,06350.7772,W,2,10,1.0,112.0,M,-23.5,M,,*72
$PGRME,2.6,M,3.8,M,5.1,M*25
$PGRMZ,368,f,3*16
$PGRMM,NAD83*29
$GPRTE,1,1,c,*37
$SDDPT,12.00,0.00*64
$SDMTW,20.6,C*00
$GPRMC,122337,A,4447.0831,N,06350.7762,W,6.0,13.5,070916,19.2,W,D*17
$GPGGA,122337,4447.0831,N,06350.7762,W,2,10,1.0,112.0,M,-23.5,M,,*73
$PGRME,2.6,M,3.8,M,5.1,M*25
$PGRMZ,367,f,3*19
$PGRMM,NAD83*29
$GPRTE,1,1,c,*37
$SDDPT,12.20,0.00*66
$SDMTW,20.6,C*00
$GPRMC,122339,A,4447.0862,N,06350.7752,W,5.9,14.8,070916,19.2,W,D*1C
$GPGGA,122339,4447.0862,N,06350.7752,W,2,10,1.0,111.7,M,-23.5,M,,*7C
$PGRME,2.6,M,3.8,M,5.1,M*25
$PGRMZ,366,f,3*18
$PGRMM,NAD83*29
$GPRTE,1,1,c,*37
$SDDPT,11.65,0.00*64
$SDMTW,20.6,C*00
$GPRMC,122341,A,4447.0893,N,06350.7741,W,6.0,12.6,070916,19.2,W,D*1D
$GPGGA,122341,4447.0893,N,06350.7741,W,2,10,1.0,111.6,M,-23.5,M,,*7E
$PGRME,2.6,M,3.8,M,5.1,M*25
$PGRMZ,366,f,3*18
$PGRMM,NAD83*29
$GPRTE,1,1,c,*37
$SDDPT,11.62,0.00*63
$SDMTW,20.6,C*00
$GPRMC,122343,A,4447.0926,N,06350.7730,W,6.2,13.6,070916,19.2,W,D*15
$GPGGA,122343,4447.0926,N,06350.7730,W,2,10,1.0,111.5,M,-23.5,M,,*76
$PGRME,2.6,M,3.8,M,5.1,M*25
$PGRMZ,366,f,3*18
$PGRMM,NAD83*29
$GPRTE,1,1,c,*37
$SDDPT,11.61,0.00*60
$SDMTW,20.6,C*00
$GPRMC,122345,A,4447.0959,N,06350.7719,W,6.4,14.9,070916,19.2,W,D*1E
$GPGGA,122345,4447.0959,N,06350.7719,W,2,10,1.0,111.7,M,-23.5,M,,*71
$PGRME,2.6,M,3.8,M,5.1,M*25
$PGRMZ,366,f,3*18
$PGRMM,NAD83*29
$GPRTE,1,1,c,*37
$SDDPT,11.62,0.00*63
$SDMTW,20.6,C*00
$GPRMC,122347,A,4447.0994,N,06350.7707,W,6.4,15.2,070916,19.2,W,D*18
$GPGGA,122347,4447.0994,N,06350.7707,W,2,10,1.0,112.0,M,-23.5,M,,*79
$PGRME,2.6,M,3.8,M,5.1,M*25
$PGRMZ,367,f,3*19
$PGRMM,NAD83*29
$GPRTE,1,1,c,*37
$SDDPT,11.55,0.00*67
$SDMTW,20.6,C*00
$GPRMC,122349,A,4447.1027,N,06350.7694,W,6.4,16.6,070916,19.2,W,D*1A
$GPGGA,122349,4447.1027,N,06350.7694,W,2,10,1.0,111.6,M,-23.5,M,,*79
$PGRME,2.6,M,3.8,M,5.1,M*25
$PGRMZ,366,f,3*18
$PGRMM,NAD83*29
$GPRTE,1,1,c,*37
$SDDPT,11.48,0.00*6B
$SDMTW,20.6,C*00
$GPRMC,122351,A,4447.1061,N,06350.7679,W,6.3,18.0,070916,19.2,W,D*1D
$GPGGA,122351,4447.1061,N,06350.7679,W,2,10,1.0,111.4,M,-23.5,M,,*73
$PGRME,2.6,M,3.8,M,5.1,M*25
$PGRMZ,366,f,3*18
$PGRMM,NAD83*29
$GPRTE,1,1,c,*37
$SDDPT,11.33,0.00*67
$SDMTW,20.6,C*00
$GPRMC,122353,A,4447.1094,N,06350.7663,W,6.4,18.0,070916,19.2,W,D*19
$GPGGA,122353,4447.1094,N,06350.7663,W,2,10,1.0,111.3,M,-23.5,M,,*77
$PGRME,2.6,M,3.8,M,5.1,M*25
$PGRMZ,365,f,3*1B
$PGRMM,NAD83*29
$GPRTE,1,1,c,*37
$SDDPT,11.30,0.00*64
$SDMTW,20.6,C*00
$GPRMC,122355,A,4447.1130,N,06350.7648,W,6.5,19.0,070916,19.2,W,D*19
$GPGGA,122355,4447.1130,N,06350.7648,W,2,10,1.0,111.4,M,-23.5,M,,*70
$PGRME,2.6,M,3.8,M,5.1,M*25
$PGRMZ,365,f,3*1B
$PGRMM,NAD83*29
$GPRTE,1,1,c,*37
$SDDPT,11.10,0.00*66
$SDMTW,20.6,C*00
$GPRMC,122357,A,4447.1164,N,06350.7633,W,6.4,19.0,070916,19.2,W,D*17
$GPGGA,122357,4447.1164,N,06350.7633,W,2,10,1.0,111.4,M,-23.5,M,,*7F
$PGRME,2.6,M,3.8,M,5.1,M*25
$PGRMZ,365,f,3*1B
$PGRMM,NAD83*29
$GPRTE,1,1,c,*37
$SDDPT,9.53,0.00*58
$SDMTW,20.6,C*00
$GPRMC,122359,A,4447.1197,N,06350.7617,W,6.4,19.2,070916,19.2,W,D*11
$GPGGA,122359,4447.1197,N,06350.7617,W,2,10,1.0,111.4,M,-23.5,M,,*7B
$PGRME,2.6,M,3.8,M,5.1,M*25
$PGRMZ,365,f,3*1B
$PGRMM,NAD83*29
$GPRTE,1,1,c,*37
$SDDPT,8.42,0.00*59
$SDMTW,20.6,C*00
$GPRMC,122401,A,4447.1230,N,06350.7602,W,6.5,18.0,070916,19.2,W,D*13
$GPGGA,122401,4447.1230,N,06350.7602,W,2,10,1.0,111.2,M,-23.5,M,,*7D
$PGRME,2.6,M,3.8,M,5.1,M*25
$PGRMZ,365,f,3*1B
$PGRMM,NAD83*29
$GPRTE,1,1,c,*37
$SDDPT,7.80,0.00*58
$SDMTW,20.6,C*00
$GPRMC,122403,A,4447.1264,N,06350.7587,W,6.5,19.2,070916,19.2,W,D*1D
$GPGGA,122403,4447.1264,N,06350.7587,W,2,10,1.0,111.2,M,-23.5,M,,*70
$PGRME,2.6,M,3.8,M,5.1,M*25
$PGRMZ,365,f,3*1B
$PGRMM,NAD83*29
$GPRTE,1,1,c,*37
$SDDPT,8.55,0.00*5F
$SDMTW,20.6,C*00
$GPRMC,122405,A,4447.1298,N,06350.7570,W,6.5,20.2,070916,19.2,W,D*1A
$GPGGA,122405,4447.1298,N,06350.7570,W,2,10,1.0,111.1,M,-23.5,M,,*7E
$PGRME,2.6,M,3.8,M,5.1,M*25
$PGRMZ,364,f,3*1A
$PGRMM,NAD83*29
$GPRTE,1,1,c,*37
$SDDPT,8.78,0.00*50
$SDMTW,20.6,C*00
$GPRMC,122407,A,4447.1332,N,06350.7554,W,6.5,21.6,070916,19.2,W,D*1A
$GPGGA,122407,4447.1332,N,06350.7554,W,2,10,1.0,111.1,M,-23.5,M,,*7B
$PGRME,2.6,M,3.8,M,5.1,M*25
$PGRMZ,364,f,3*1A
$PGRMM,NAD83*29
$GPRTE,1,1,c,*37
$SDDPT,8.33,0.00*5F
$SDMTW,20.6,C*00
$GPRMC,122409,A,4447.1365,N,06350.7535,W,6.5,22.6,070916,19.2,W,D*12
$GPGGA,122409,4447.1365,N,06350.7535,W,2,10,1.0,111.3,M,-23.5,M,,*72
$PGRME,2.6,M,3.8,M,5.1,M*25
$PGRMZ,365,f,3*1B
$PGRMM,NAD83*29
$GPRTE,1,1,c,*37
$SDDPT,8.06,0.00*59
$SDMTW,20.6,C*00
$GPRMC,122411,A,4447.1397,N,06350.7515,W,6.4,23.0,070916,19.2,W,D*12
$GPGGA,122411,4447.1397,N,06350.7515,W,2,10,1.0,111.2,M,-23.5,M,,*75
$PGRME,2.6,M,3.8,M,5.1,M*25
$PGRMZ,365,f,3*1B
$PGRMM,NAD83*29
$GPRTE,1,1,c,*37
$SDDPT,7.88,0.00*50
$SDMTW,20.6,C*00
$GPRMC,122413,A,4447.1431,N,06350.7494,W,6.6,24.6,070916,19.2,W,D*10
$GPGGA,122413,4447.1431,N,06350.7494,W,2,09,1.0,111.1,M,-23.5,M,,*7F
$PGRME,2.6,M,3.8,M,5.1,M*25
$PGRMZ,365,f,3*1B
$PGRMM,NAD83*29
$GPRTE,1,1,c,*37
$SDDPT,8.07,0.00*58
$SDMTW,20.6,C*00
$GPRMC,122415,A,4447.1464,N,06350.7471,W,6.8,24.9,070916,19.2,W,D*1C
$GPGGA,122415,4447.1464,N,06350.7471,W,2,09,1.1,111.3,M,-23.5,M,,*71
$PGRME,2.6,M,3.8,M,5.1,M*25
$PGRMZ,365,f,3*1B
$PGRMM,NAD83*29
$GPRTE,1,1,c,*37
$SDDPT,8.76,0.00*5E
$SDMTW,20.6,C*00
$GPRMC,122417,A,4447.1498,N,06350.7449,W,6.9,23.8,070916,19.2,W,D*11
$GPGGA,122417,4447.1498,N,06350.7449,W,2,09,1.1,111.5,M,-23.5,M,,*7D
$PGRME,2.6,M,3.8,M,5.1,M*25
$PGRMZ,366,f,3*18
$PGRMM,NAD83*29
$GPRTE,1,1,c,*37
$SDDPT,9.13,0.00*5C
$SDMTW,20.6,C*00
$GPRMC,122419,A,4447.1533,N,06350.7428,W,6.9,26.1,070916,19.2,W,D*14
$GPGGA,122419,4447.1533,N,06350.7428,W,2,09,1.1,111.6,M,-23.5,M,,*77
$PGRME,2.6,M,3.8,M,5.1,M*25
$PGRMZ,366,f,3*18
$PGRMM,NAD83*29
$GPRTE,1,1,c,*37
$SDDPT,10.07,0.00*61
$SDMTW,20.6,C*00
$GPRMC,122421,A,4447.1567,N,06350.7404,W,7.1,27.0,070916,19.2,W,D*19
$GPGGA,122421,4447.1567,N,06350.7404,W,2,09,1.1,111.7,M,-23.5,M,,*72
$PGRME,2.6,M,3.8,M,5.1,M*25
$PGRMZ,366,f,3*18
$PGRMM,NAD83*29
$GPRTE,1,1,c,*37
$SDDPT,11.22,0.00*67
$SDMTW,20.6,C*00
$GPRMC,122423,A,4447.1602,N,06350.7379,W,7.0,27.8,070916,19.2,W,D*1F
$GPGGA,122423,4447.1602,N,06350.7379,W,2,09,1.1,111.8,M,-23.5,M,,*72
$PGRME,2.6,M,3.8,M,5.1,M*25
$PGRMZ,367,f,3*19
$PGRMM,NAD83*29
$GPRTE,1,1,c,*37
$SDDPT,12.83,0.00*6F
$SDMTW,20.6,C*00
$GPRMC,122425,A,4447.1636,N,06350.7353,W,7.0,28.5,070916,19.2,W,D*14
$GPGGA,122425,4447.1636,N,06350.7353,W,2,10,1.0,111.9,M,-23.5,M,,*73
$PGRME,2.6,M,3.8,M,5.1,M*25
$PGRMZ,367,f,3*19
$PGRMM,NAD83*29
$GPRTE,1,1,c,*37
$SDDPT,13.49,0.00*68
$SDMTW,20.6,C*00
$GPRMC,122427,A,4447.1671,N,06350.7325,W,7.1,29.3,070916,19.2,W,D*12
$GPGGA,122427,4447.1671,N,06350.7325,W,2,10,1.0,111.9,M,-23.5,M,,*73
$PGRME,2.6,M,3.8,M,5.1,M*25
$PGRMZ,367,f,3*19
$PGRMM,NAD83*29
$GPRTE,1,1,c,*37
$SDDPT,13.96,0.00*6A
$SDMTW,20.6,C*00
$GPRMC,122429,A,4447.1704,N,06350.7298,W,7.0,30.3,070916,19.2,W,D*11
$GPGGA,122429,4447.1704,N,06350.7298,W,2,10,1.0,111.9,M,-23.5,M,,*79
$PGRME,2.6,M,3.8,M,5.1,M*25
$PGRMZ,367,f,3*19
$PGRMM,NAD83*29
$GPRTE,1,1,c,*37
$SDDPT,14.49,0.00*6F
$SDMTW,20.6,C*00
$GPRMC,122431,A,4447.1736,N,06350.7271,W,7.1,31.5,070916,19.2,W,D*18
$GPGGA,122431,4447.1736,N,06350.7271,W,2,10,1.0,111.9,M,-23.5,M,,*76
$PGRME,2.6,M,3.8,M,5.1,M*25
$PGRMZ,367,f,3*19
$PGRMM,NAD83*29
$GPRTE,1,1,c,*37
$SDDPT,14.99,0.00*62
$SDMTW,20.6,C*00
$GPRMC,122433,A,4447.1769,N,06350.7242,W,6.9,32.6,070916,19.2,W,D*19
$GPGGA,122433,4447.1769,N,06350.7242,W,2,10,1.0,111.8,M,-23.5,M,,*7F
$PGRME,2.6,M,3.8,M,5.1,M*25
$PGRMZ,367,f,3*19
$PGRMM,NAD83*29
$GPRTE,1,1,c,*37
$SDDPT,15.54,0.00*62
$SDMTW,20.6,C*00
$GPRMC,122435,A,4447.1799,N,06350.7215,W,6.6,33.5,070916,19.2,W,D*1F
$GPGGA,122435,4447.1799,N,06350.7215,W,2,10,1.0,111.9,M,-23.5,M,,*75
$PGRME,2.6,M,3.8,M,5.1,M*25
$PGRMZ,367,f,3*19
$PGRMM,NAD83*29
$GPRTE,1,1,c,*37
$SDDPT,16.00,0.00*60
$SDMTW,20.6,C*00
$GPRMC,122437,A,4447.1829,N,06350.7186,W,6.6,31.9,070916,19.2,W,D*1E
$GPGGA,122437,4447.1829,N,06350.7186,W,2,10,1.0,112.1,M,-23.5,M,,*71
$PGRME,2.6,M,3.8,M,5.1,M*25
$PGRMZ,368,f,3*16
$PGRMM,NAD83*29
$GPRTE,1,1,c,*37
$SDDPT,16.52,0.00*67
$SDMTW,20.6,C*00
$GPRMC,122439,A,4447.1859,N,06350.7159,W,6.6,31.2,070916,19.2,W,D*1E
$GPGGA,122439,4447.1859,N,06350.7159,W,2,10,1.0,112.0,M,-23.5,M,,*7B
$PGRME,2.6,M,3.8,M,5.1,M*25
$PGRMZ,368,f,3*16
$PGRMM,NAD83*29
$GPRTE,1,1,c,*37
$SDDPT,17.03,0.00*62
$SDMTW,20.6,C*00
$GPRMC,122441,A,4447.1890,N,06350.7133,W,6.7,30.2,070916,19.2,W,D*18
$GPGGA,122441,4447.1890,N,06350.7133,W,2,10,1.0,112.2,M,-23.5,M,,*7F
$PGRME,2.6,M,3.8,M,5.1,M*25
$PGRMZ,368,f,3*16
$PGRMM,NAD83*29
$GPRTE,1,1,c,*37
$SDDPT,17.54,0.00*60
$SDMTW,20.6,C*00
$GPRMC,122443,A,4447.1922,N,06350.7109,W,6.7,28.9,070916,19.2,W,D*19
$GPGGA,122443,4447.1922,N,06350.7109,W,2,10,1.0,112.3,M,-23.5,M,,*7D
$PGRME,2.6,M,3.8,M,5.1,M*25
$PGRMZ,368,f,3*16
$PGRMM,NAD83*29
$GPRTE,1,1,c,*37
$SDDPT,18.21,0.00*6D
$SDMTW,20.6,C*00
$GPRMC,122445,A,4447.1955,N,06350.7082,W,6.6,28.1,070916,19.2,W,D*14
$GPGGA,122445,4447.1955,N,06350.7082,W,2,10,1.0,112.2,M,-23.5,M,,*78
$PGRME,2.6,M,3.8,M,5.1,M*25
$PGRMZ,368,f,3*16
$PGRMM,NAD83*29
$GPRTE,1,1,c,*37
$SDDPT,19.04,0.00*6B
$SDMTW,20.6,C*00
$GPRMC,122447,A,4447.1988,N,06350.7057,W,6.8,29.3,070916,19.2,W,D*13
$GPGGA,122447,4447.1988,N,06350.7057,W,2,10,1.0,112.4,M,-23.5,M,,*74
$PGRME,2.6,M,3.8,M,5.1,M*25
$PGRMZ,369,f,3*17
$PGRMM,NAD83*29
$GPRTE,1,1,c,*37
$SDDPT,19.86,0.00*61
$SDMTW,20.6,C*00
$GPRMC,122449,A,4447.2023,N,06350.7031,W,7.0,29.4,070916,19.2,W,D*18
$GPGGA,122449,4447.2023,N,06350.7031,W,2,10,1.0,112.5,M,-23.5,M,,*70
$PGRME,2.6,M,3.8,M,5.1,M*25
$PGRMZ,369,f,3*17
$PGRMM,NAD83*29
$GPRTE,1,1,c,*37
$SDDPT,20.71,0.00*63
$SDMTW,20.6,C*00
$GPRMC,122451,A,4447.2057,N,06350.7004,W,7.0,29.9,070916,19.2,W,D*19
$GPGGA,122451,4447.2057,N,06350.7004,W,2,10,1.0,112.5,M,-23.5,M,,*7C
$PGRME,2.6,M,3.8,M,5.1,M*25
$PGRMZ,369,f,3*17
$PGRMM,NAD83*29
$GPRTE,1,1,c,*37
$SDDPT,21.18,0.00*6D
$SDMTW,20.6,C*00
$GPRMC,122453,A,4447.2090,N,06350.6978,W,7.0,30.3,070916,19.2,W,D*11
$GPGGA,122453,4447.2090,N,06350.6978,W,2,10,1.0,112.6,M,-23.5,M,,*75
$PGRME,2.6,M,3.8,M,5.1,M*25
$PGRMZ,369,f,3*17
$PGRMM,NAD83*29
$GPRTE,1,1,c,*37
$SDDPT,21.37,0.00*60
$SDMTW,20.6,C*00
$GPRMC,122455,A,4447.2123,N,06350.6950,W,7.0,31.1,070916,19.2,W,D*17
$GPGGA,122455,4447.2123,N,06350.6950,W,2,10,1.0,112.5,M,-23.5,M,,*73
$PGRME,2.6,M,3.8,M,5.1,M*25
$PGRMZ,369,f,3*17
$PGRMM,NAD83*29
$GPRTE,1,1,c,*37
$SDDPT,21.48,0.00*68
$SDMTW,20.6,C*00
$GPRMC,122457,A,4447.2157,N,06350.6922,W,7.0,31.5,070916,19.2,W,D*17
$GPGGA,122457,4447.2157,N,06350.6922,W,2,10,1.0,112.6,M,-23.5,M,,*74
$PGRME,2.6,M,3.8,M,5.1,M*25
$PGRMZ,369,f,3*17
$PGRMM,NAD83*29
$GPRTE,1,1,c,*37
$SDDPT,21.50,0.00*61
$SDMTW,20.6,C*00
$GPRMC,122459,A,4447.2189,N,06350.6892,W,7.1,31.6,070916,19.2,W,D*12
$GPGGA,122459,4447.2189,N,06350.6892,W,2,10,1.0,112.7,M,-23.5,M,,*72
$PGRME,2.6,M,3.8,M,5.1,M*25
$PGRMZ,370,f,3*1F
$PGRMM,NAD83*29
$GPRTE,1,1,c,*37
$SDDPT,21.48,0.00*68
$SDMTW,20.6,C*00
$GPRMC,122501,A,4447.2223,N,06350.6861,W,7.3,32.3,070916,19.2,W,D*15
$GPGGA,122501,4447.2223,N,06350.6861,W,2,10,1.0,112.6,M,-23.5,M,,*70
$PGRME,2.6,M,3.8,M,5.1,M*25
$PGRMZ,369,f,3*17
$PGRMM,NAD83*29
$GPRTE,1,1,c,*37
$SDDPT,21.34,0.00*63
$SDMTW,20.6,C*00
$GPRMC,122503,A,4447.2255,N,06350.6830,W,7.2,34.2,070916,19.2,W,D*14
$GPGGA,122503,4447.2255,N,06350.6830,W,2,10,1.0,112.6,M,-23.5,M,,*77
$PGRME,2.6,M,3.8,M,5.1,M*25
$PGRMZ,369,f,3*17
$PGRMM,NAD83*29
$GPRTE,1,1,c,*37
$SDDPT,21.23,0.00*65
$SDMTW,20.6,C*00
$GPRMC,122505,A,4447.2287,N,06350.6800,W,7.2,34.3,070916,19.2,W,D*1F
$GPGGA,122505,4447.2287,N,06350.6800,W,2,10,1.0,112.4,M,-23.5,M,,*7F
$PGRME,2.6,M,3.8,M,5.1,M*25
$PGRMZ,369,f,3*17
$PGRMM,NAD83*29
$GPRTE,1,1,c,*37
$SDDPT,21.17,0.00*62
$SDMTW,20.6,C*00
$GPRMC,122507,A,4447.2320,N,06350.6768,W,7.2,35.9,070916,19.2,W,D*1B
$GPGGA,122507,4447.2320,N,06350.6768,W,2,10,1.0,112.2,M,-23.5,M,,*76
$PGRME,2.6,M,3.8,M,5.1,M*25
$PGRMZ,368,f,3*16
$PGRMM,NAD83*29
$GPRTE,1,1,c,*37
$SDDPT,20.96,0.00*6A
$SDMTW,20.6,C*00
$GPRMC,122509,A,4447.2351,N,06350.6735,W,7.2,35.1,070916,19.2,W,D*13
$GPGGA,122509,4447.2351,N,06350.6735,W,2,10,1.0,112.0,M,-23.5,M,,*74
$PGRME,2.6,M,3.8,M,5.1,M*25
$PGRMZ,368,f,3*16
$PGRMM,NAD83*29
$GPRTE,1,1,c,*37
$SDDPT,20.97,0.00*6B
$SDMTW,20.6,C*00
$GPRMC,122511,A,4447.2383,N,06350.6701,W,7.2,37.4,070916,19.2,W,D*15
$GPGGA,122511,4447.2383,N,06350.6701,W,2,10,1.0,112.1,M,-23.5,M,,*74
$PGRME,2.6,M,3.8,M,5.1,M*25
$PGRMZ,368,f,3*16
$PGRMM,NAD83*29
$GPRTE,1,1,c,*37
$SDDPT,20.87,0.00*6A
$SDMTW,20.6,C*00
$GPRMC,122513,A,4447.2415,N,06350.6666,W,7.2,38.1,070916,19.2,W,D*15
$GPGGA,122513,4447.2415,N,06350.6666,W,2,10,1.0,112.4,M,-23.5,M,,*7B
$PGRME,2.6,M,3.8,M,5.1,M*25
$PGRMZ,369,f,3*17
$PGRMM,NAD83*29
$GPRTE,1,1,c,*37
$SDDPT,20.85,0.00*68
$SDMTW,20.6,C*00
$GPRMC,122515,A,4447.2445,N,06350.6631,W,7.2,38.7,070916,19.2,W,D*12
$GPGGA,122515,4447.2445,N,06350.6631,W,2,10,1.0,112.1,M,-23.5,M,,*7F
$PGRME,2.6,M,3.8,M,5.1,M*25
$PGRMZ,368,f,3*16
$PGRMM,NAD83*29
$GPRTE,1,1,c,*37
$SDDPT,20.77,0.00*65
$SDMTW,20.6,C*00
$GPRMC,122517,A,4447.2475,N,06350.6595,W,7.1,39.0,070916,19.2,W,D*1B
$GPGGA,122517,4447.2475,N,06350.6595,W,2,10,1.0,112.0,M,-23.5,M,,*72
$PGRME,2.6,M,3.8,M,5.1,M*25
$PGRMZ,367,f,3*19
$PGRMM,NAD83*29
$GPRTE,1,1,c,*37
$SDDPT,20.94,0.00*68
$SDMTW,20.6,C*00
$GPRMC,122519,A,4447.2505,N,06350.6560,W,7.1,39.5,070916,19.2,W,D*1C
$GPGGA,122519,4447.2505,N,06350.6560,W,2,10,1.0,111.9,M,-23.5,M,,*7A
$PGRME,2.6,M,3.8,M,5.1,M*25
$PGRMZ,367,f,3*19
$PGRMM,NAD83*29
$GPRTE,1,1,c,*37
$SDDPT,21.05,0.00*61
$SDMTW,20.6,C*00
$GPRMC,122521,A,4447.2535,N,06350.6524,W,7.3,40.9,070916,19.2,W,D*14
$GPGGA,122521,4447.2535,N,06350.6524,W,2,10,1.0,112.0,M,-23.5,M,,*78
$PGRME,2.6,M,3.8,M,5.1,M*25
$PGRMZ,367,f,3*19
$PGRMM,NAD83*29
$GPRTE,1,1,c,*37
$SDDPT,21.26,0.00*60
$SDMTW,20.6,C*00
$GPRMC,122523,A,4447.2566,N,06350.6487,W,7.2,41.7,070916,19.2,W,D*16
$GPGGA,122523,4447.2566,N,06350.6487,W,2,10,1.0,112.1,M,-23.5,M,,*75
$PGRME,2.6,M,3.8,M,5.1,M*25
$PGRMZ,368,f,3*16
$PGRMM,NAD83*29
$GPRTE,1,1,c,*37
$SDDPT,21.45,0.00*65
$SDMTW,20.6,C*00
$GPRMC,122525,A,4447.2595,N,06350.6448,W,7.2,43.2,070916,19.2,W,D*18
$GPGGA,122525,4447.2595,N,06350.6448,W,2,10,1.0,111.9,M,-23.5,M,,*77
$PGRME,2.6,M,3.8,M,5.1,M*25
$PGRMZ,367,f,3*19
$PGRMM,NAD83*29
$GPRTE,1,1,c,*37
$SDDPT,21.65,0.00*67
$SDMTW,20.6,C*00
$GPRMC,122527,A,4447.2624,N,06350.6410,W,7.2,44.0,070916,19.2,W,D*1B
$GPGGA,122527,4447.2624,N,06350.6410,W,2,10,1.0,111.8,M,-23.5,M,,*70
$PGRME,2.6,M,3.8,M,5.1,M*25
$PGRMZ,367,f,3*19
$PGRMM,NAD83*29
$GPRTE,1,1,c,*37
$SDDPT,21.76,0.00*65
$SDMTW,20.6,C*00
$GPRMC,122529,A,4447.2652,N,06350.6372,W,7.2,44.6,070916,19.2,W,D*11
$GPGGA,122529,4447.2652,N,06350.6372,W,2,10,1.0,111.8,M,-23.5,M,,*7C
$PGRME,2.6,M,3.8,M,5.1,M*25
$PGRMZ,367,f,3*19
$PGRMM,NAD83*29
$GPRTE,1,1,c,*37
$SDDPT,21.79,0.00*6A
$SDMTW,20.6,C*00
$GPRMC,122531,A,4447.2681,N,06350.6333,W,7.2,45.1,070916,19.2,W,D*15
$GPGGA,122531,4447.2681,N,06350.6333,W,2,10,1.0,112.0,M,-23.5,M,,*75
$PGRME,2.6,M,3.8,M,5.1,M*25
$PGRMZ,367,f,3*19
$PGRMM,NAD83*29
$GPRTE,1,1,c,*37
$SDDPT,21.78,0.00*6B
$SDMTW,20.6,C*00
$GPRMC,122533,A,4447.2709,N,06350.6293,W,7.2,46.0,070916,19.2,W,D*1F
$GPGGA,122533,4447.2709,N,06350.6293,W,2,10,1.0,112.2,M,-23.5,M,,*7F
$PGRME,2.6,M,3.8,M,5.1,M*25
$PGRMZ,368,f,3*16
$PGRMM,NAD83*29
$GPRTE,1,1,c,*37
$SDDPT,21.69,0.00*6B
$SDMTW,20.6,C*00
$GPRMC,122535,A,4447.2735,N,06350.6250,W,7.2,47.3,070916,19.2,W,D*1B
$GPGGA,122535,4447.2735,N,06350.6250,W,2,10,1.0,112.3,M,-23.5,M,,*78
$PGRME,2.6,M,3.8,M,5.1,M*25
$PGRMZ,368,f,3*16
$PGRMM,NAD83*29
$GPRTE,1,1,c,*37
$SDDPT,21.60,0.00*62
$SDMTW,20.6,C*00
$GPRMC,122537,A,4447.2761,N,06350.6209,W,7.2,47.9,070916,19.2,W,D*1E
$GPGGA,122537,4447.2761,N,06350.6209,W,2,10,1.0,112.1,M,-23.5,M,,*75
$PGRME,2.6,M,3.8,M,5.1,M*25
$PGRMZ,368,f,3*16
$PGRMM,NAD83*29
$GPRTE,1,1,c,*37
$SDDPT,21.55,0.00*64
$SDMTW,20.6,C*00
$GPRMC,122539,A,4447.2787,N,06350.6168,W,7.2,49.3,070916,19.2,W,D*18
$GPGGA,122539,4447.2787,N,06350.6168,W,2,10,1.0,112.0,M,-23.5,M,,*76
$PGRME,2.6,M,3.8,M,5.1,M*25
$PGRMZ,367,f,3*19
$PGRMM,NAD83*29
$GPRTE,1,1,c,*37
$SDDPT,21.48,0.00*68
$SDMTW,20.6,C*00
$GPRMC,122541,A,4447.2812,N,06350.6125,W,7.2,49.8,070916,19.2,W,D*16
$GPGGA,122541,4447.2812,N,06350.6125,W,2,10,1.0,111.9,M,-23.5,M,,*79
$PGRME,2.6,M,3.8,M,5.1,M*25
$PGRMZ,367,f,3*19
$PGRMM,NAD83*29
$GPRTE,1,1,c,*37
$SDDPT,21.34,0.00*63
$SDMTW,20.6,C*00
$GPRMC,122543,A,4447.2837,N,06350.6082,W,7.2,50.3,070916,19.2,W,D*1C
$GPGGA,122543,4447.2837,N,06350.6082,W,2,10,1.0,112.1,M,-23.5,M,,*7B
$PGRME,2.6,M,3.8,M,5.1,M*25
$PGRMZ,368,f,3*16
$PGRMM,NAD83*29
$GPRTE,1,1,c,*37
$SDDPT,21.06,0.00*62
$SDMTW,20.6,C*00
$GPRMC,122545,A,4447.2863,N,06350.6037,W,7.2,50.5,070916,19.2,W,D*13
$GPGGA,122545,4447.2863,N,06350.6037,W,2,10,1.0,112.2,M,-23.5,M,,*71
$PGRME,2.6,M,3.8,M,5.1,M*25
$PGRMZ,368,f,3*16
$PGRMM,NAD83*29
$GPRTE,1,1,c,*37
$SDDPT,20.83,0.00*6E
$SDMTW,20.6,C*00
$GPRMC,122547,A,4447.2887,N,06350.5992,W,7.2,51.5,070916,19.2,W,D*1F
$GPGGA,122547,4447.2887,N,06350.5992,W,2,10,1.0,112.1,M,-23.5,M,,*7F
$PGRME,2.6,M,3.8,M,5.1,M*25
$PGRMZ,368,f,3*16
$PGRMM,NAD83*29
$GPRTE,1,1,c,*37
$SDDPT,20.12,0.00*66
$SDMTW,20.6,C*00
$GPRMC,122549,A,4447.2911,N,06350.5948,W,7.2,52.2,070916,19.2,W,D*1C
$GPGGA,122549,4447.2911,N,06350.5948,W,2,10,1.0,111.8,M,-23.5,M,,*72
$PGRME,2.6,M,3.8,M,5.1,M*25
$PGRMZ,367,f,3*19
$PGRMM,NAD83*29
$GPRTE,1,1,c,*37
$SDDPT,20.19,0.00*6D
$SDMTW,20.6,C*00
$GPRMC,122551,A,4447.2934,N,06350.5904,W,7.2,52.6,070916,19.2,W,D*1E
$GPGGA,122551,4447.2934,N,06350.5904,W,2,10,1.0,111.8,M,-23.5,M,,*74
$PGRME,2.6,M,3.8,M,5.1,M*25
$PGRMZ,367,f,3*19
$PGRMM,NAD83*29
$GPRTE,1,1,c,*37
$SDDPT,18.42,0.00*68
$SDMTW,20.6,C*00
$GPRMC,122553,A,4447.2957,N,06350.5859,W,7.2,53.3,070916,19.2,W,D*14
$GPGGA,122553,4447.2957,N,06350.5859,W,2,10,1.0,111.8,M,-23.5,M,,*7A
$PGRME,2.6,M,3.8,M,5.1,M*25
$PGRMZ,367,f,3*19
$PGRMM,NAD83*29
$GPRTE,1,1,c,*37
$SDDPT,17.53,0.00*67
$SDMTW,20.6,C*00
$GPRMC,122555,A,4447.2981,N,06350.5813,W,7.3,53.9,070916,19.2,W,D*1C
$GPGGA,122555,4447.2981,N,06350.5813,W,2,10,1.0,111.8,M,-23.5,M,,*79
$PGRME,2.6,M,3.8,M,5.1,M*25
$PGRMZ,367,f,3*19
$PGRMM,NAD83*29
$GPRTE,1,1,c,*37
$SDDPT,16.67,0.00*61
$SDMTW,20.6,C*00
$GPRMC,122557,A,4447.3004,N,06350.5766,W,7.3,55.0,070916,19.2,W,D*19
$GPGGA,122557,4447.3004,N,06350.5766,W,2,10,1.0,111.9,M,-23.5,M,,*72
$PGRME,2.6,M,3.8,M,5.1,M*25
$PGRMZ,367,f,3*19
$PGRMM,NAD83*29
$GPRTE,1,1,c,*37
$SDDPT,15.70,0.00*64
$SDMTW,20.6,C*00
$GPRMC,122559,A,4447.3026,N,06350.5720,W,7.2,55.5,070916,19.2,W,D*11
$GPGGA,122559,4447.3026,N,06350.5720,W,2,10,1.0,111.5,M,-23.5,M,,*72
$PGRME,2.6,M,3.8,M,5.1,M*25
$PGRMZ,366,f,3*18
$PGRMM,NAD83*29
$GPRTE,1,1,c,*37
$SDDPT,15.34,0.00*64
$SDMTW,20.6,C*00
$GPRMC,122601,A,4447.3049,N,06350.5675,W,7.2,56.8,070916,19.2,W,D*19
$GPGGA,122601,4447.3049,N,06350.5675,W,2,10,1.0,111.5,M,-23.5,M,,*74
$PGRME,2.6,M,3.8,M,5.1,M*25
$PGRMZ,366,f,3*18
$PGRMM,NAD83*29
$GPRTE,1,1,c,*37
$SDDPT,15.33,0.00*63
$SDMTW,20.6,C*00
$GPRMC,122603,A,4447.3071,N,06350.5630,W,7.2,54.2,070916,19.2,W,D*19
$GPGGA,122603,4447.3071,N,06350.5630,W,2,10,1.0,111.3,M,-23.5,M,,*7A
$PGRME,2.6,M,3.8,M,5.1,M*25
$PGRMZ,365,f,3*1B
$PGRMM,NAD83*29
$GPRTE,1,1,c,*37
$SDDPT,15.64,0.00*61
$SDMTW,20.6,C*00
$GPRMC,122605,A,4447.3095,N,06350.5583,W,7.4,52.1,070916,19.2,W,D*1D
$GPGGA,122605,4447.3095,N,06350.5583,W,2,09,1.1,111.3,M,-23.5,M,,*74
$PGRME,2.6,M,3.8,M,5.1,M*25
$PGRMZ,365,f,3*1B
$PGRMM,NAD83*29
$GPRTE,1,1,c,*37
$SDDPT,15.25,0.00*64
$SDMTW,20.6,C*00
$GPRMC,122607,A,4447.3121,N,06350.5538,W,7.4,49.4,070916,19.2,W,D*1E
$GPGGA,122607,4447.3121,N,06350.5538,W,2,10,1.0,111.3,M,-23.5,M,,*71
$PGRME,2.6,M,3.8,M,5.1,M*25
$PGRMZ,365,f,3*1B
$PGRMM,NAD83*29
$GPRTE,1,1,c,*37
$SDDPT,14.11,0.00*62
$SDMTW,20.6,C*00
$GPRMC,122609,A,4447.3149,N,06350.5494,W,7.4,46.5,070916,19.2,W,D*17
$GPGGA,122609,4447.3149,N,06350.5494,W,2,10,1.0,111.2,M,-23.5,M,,*77
$PGRME,2.6,M,3.8,M,5.1,M*25
$PGRMZ,365,f,3*1B
$PGRMM,NAD83*29
$GPRTE,1,1,c,*37
$SDDPT,13.47,0.00*66
$SDMTW,20.6,C*00
$GPRMC,122611,A,4447.3180,N,06350.5454,W,7.4,43.6,070916,19.2,W,D*11
$GPGGA,122611,4447.3180,N,06350.5454,W,2,10,1.0,110.8,M,-23.5,M,,*7C
$PGRME,2.6,M,3.8,M,5.1,M*25
$PGRMZ,363,f,3*1D
$PGRMM,NAD83*29
$GPRTE,1,1,c,*37
$SDDPT,13.37,0.00*61
$SDMTW,20.6,C*00
$GPRMC,122613,A,4447.3210,N,06350.5415,W,7.5,41.6,070916,19.2,W,D*1F
$GPGGA,122613,4447.3210,N,06350.5415,W,2,10,1.0,110.7,M,-23.5,M,,*7E
$PGRME,2.6,M,3.8,M,5.1,M*25
$PGRMZ,363,f,3*1D
$PGRMM,NAD83*29
$GPRTE,1,1,c,*37
$SDDPT,13.38,0.00*6E
$SDMTW,20.6,C*00
$GPRMC,122615,A,4447.3242,N,06350.5379,W,7.5,38.5,070916,19.2,W,D*1E
$GPGGA,122615,4447.3242,N,06350.5379,W,2,10,1.0,110.8,M,-23.5,M,,*7D
$PGRME,2.6,M,3.8,M,5.1,M*25
$PGRMZ,364,f,3*1A
$PGRMM,NAD83*29
$GPRTE,1,1,c,*37
$SDDPT,13.52,0.00*62
$SDMTW,20.6,C*00
$GPRMC,122617,A,4447.3276,N,06350.5344,W,7.4,37.3,070916,19.2,W,D*1D
$GPGGA,122617,4447.3276,N,06350.5344,W,2,10,1.0,110.9,M,-23.5,M,,*77
$PGRME,2.6,M,3.8,M,5.1,M*25
$PGRMZ,364,f,3*1A
$PGRMM,NAD83*29
$GPRTE,1,1,c,*37
$SDDPT,13.66,0.00*65
$SDMTW,20.6,C*00
$GPRMC,122619,A,4447.3310,N,06350.5310,W,7.5,35.5,070916,19.2,W,D*16
$GPGGA,122619,4447.3310,N,06350.5310,W,2,10,1.0,111.0,M,-23.5,M,,*71
$PGRME,2.6,M,3.8,M,5.1,M*25
$PGRMZ,364,f,3*1A
$PGRMM,NAD83*29
$GPRTE,1,1,c,*37
$SDDPT,13.76,0.00*64
$SDMTW,20.6,C*00
$GPRMC,122621,A,4447.3343,N,06350.5277,W,7.5,33.1,070916,19.2,W,D*19
$GPGGA,122621,4447.3343,N,06350.5277,W,2,10,1.0,111.1,M,-23.5,M,,*7D
$PGRME,2.6,M,3.8,M,5.1,M*25
$PGRMZ,364,f,3*1A
$PGRMM,NAD83*29
$GPRTE,1,1,c,*37
$SDDPT,13.77,0.00*65
$SDMTW,20.6,C*00
$GPRMC,122623,A,4447.3377,N,06350.5246,W,7.5,32.5,070916,19.2,W,D*1B
$GPGGA,122623,4447.3377,N,06350.5246,W,2,10,1.0,111.1,M,-23.5,M,,*7A
$PGRME,2.6,M,3.8,M,5.1,M*25
$PGRMZ,365,f,3*1B
$PGRMM,NAD83*29
$GPRTE,1,1,c,*37
$SDDPT,13.37,0.00*61
$SDMTW,20.6,C*00
$GPRMC,122625,A,4447.3413,N,06350.5216,W,7.5,30.9,070916,19.2,W,D*13
$GPGGA,122625,4447.3413,N,06350.5216,W,2,10,1.0,111.3,M,-23.5,M,,*7E
$PGRME,2.6,M,3.8,M,5.1,M*25
$PGRMZ,365,f,3*1B
$PGRMM,NAD83*29
$GPRTE,1,1,c,*37
$SDDPT,13.26,0.00*61
$SDMTW,20.6,C*00
$GPRMC,122627,A,4447.3449,N,06350.5188,W,7.4,29.1,070916,19.2,W,D*1B
$GPGGA,122627,4447.3449,N,06350.5188,W,2,10,1.0,111.5,M,-23.5,M,,*71
$PGRME,2.6,M,3.8,M,5.1,M*25
$PGRMZ,366,f,3*18
$PGRMM,NAD83*29
$GPRTE,1,1,c,*37
$SDDPT,13.10,0.00*64
$SDMTW,20.6,C*00
$GPRMC,122629,A,4447.3485,N,06350.5161,W,7.4,27.9,070916,19.2,W,D*14
$GPGGA,122629,4447.3485,N,06350.5161,W,2,10,1.0,111.6,M,-23.5,M,,*7B
$PGRME,2.6,M,3.8,M,5.1,M*25
$PGRMZ,366,f,3*18
$PGRMM,NAD83*29
$GPRTE,1,1,c,*37
$SDDPT,13.99,0.00*65
$SDMTW,20.6,C*00
$GPRMC,122631,A,4447.3523,N,06350.5134,W,7.4,26.1,070916,19.2,W,D*19
$GPGGA,122631,4447.3523,N,06350.5134,W,2,10,1.0,111.7,M,-23.5,M,,*7E
$PGRME,2.6,M,3.8,M,5.1,M*25
$PGRMZ,367,f,3*19
$PGRMM,NAD83*29
$GPRTE,1,1,c,*37
$SDDPT,14.78,0.00*6D
$SDMTW,20.6,C*00
$GPRMC,122633,A,4447.3561,N,06350.5109,W,7.4,24.1,070916,19.2,W,D*11
$GPGGA,122633,4447.3561,N,06350.5109,W,2,10,1.0,111.9,M,-23.5,M,,*7A
$PGRME,2.6,M,3.8,M,5.1,M*25
$PGRMZ,367,f,3*19
$PGRMM,NAD83*29
$GPRTE,1,1,c,*37
$SDDPT,15.11,0.00*63
$SDMTW,20.6,C*00
$GPRMC,122635,A,4447.3599,N,06350.5087,W,7.4,23.4,070916,19.2,W,D*15
$GPGGA,122635,4447.3599,N,06350.5087,W,2,10,1.0,112.0,M,-23.5,M,,*76
$PGRME,2.6,M,3.8,M,5.1,M*25
$PGRMZ,367,f,3*19
$PGRMM,NAD83*29
$GPRTE,1,1,c,*37
$SDDPT,16.20,0.00*62
$SDMTW,20.6,C*00
$GPRMC,122637,A,4447.3637,N,06350.5067,W,7.4,22.9,070916,19.2,W,D*12
$GPGGA,122637,4447.3637,N,06350.5067,W,2,10,1.0,112.1,M,-23.5,M,,*7C
$PGRME,2.6,M,3.8,M,5.1,M*25
$PGRMZ,368,f,3*16
$PGRMM,NAD83*29
$GPRTE,1,1,c,*37
$SDDPT,17.27,0.00*64
$SDMTW,20.6,C*00
$GPRMC,122639,A,4447.3675,N,06350.5043,W,7.4,24.3,070916,19.2,W,D*10
$GPGGA,122639,4447.3675,N,06350.5043,W,2,10,1.0,112.3,M,-23.5,M,,*70
$PGRME,2.6,M,3.8,M,5.1,M*25
$PGRMZ,368,f,3*16
$PGRMM,NAD83*29
$GPRTE,1,1,c,*37
$SDDPT,17.59,0.00*6D
$SDMTW,20.6,C*00
$GPRMC,122641,A,4447.3712,N,06350.5018,W,7.4,26.5,070916,19.2,W,D*15
$GPGGA,122641,4447.3712,N,06350.5018,W,2,10,1.0,112.5,M,-23.5,M,,*77
$PGRME,2.6,M,3.8,M,5.1,M*25
$PGRMZ,369,f,3*17
$PGRMM,NAD83*29
$GPRTE,1,1,c,*37
$SDDPT,17.86,0.00*6F
$SDMTW,20.6,C*00
$GPRMC,122643,A,4447.3748,N,06350.4991,W,7.4,28.0,070916,19.2,W,D*1A
$GPGGA,122643,4447.3748,N,06350.4991,W,2,10,1.0,112.4,M,-23.5,M,,*72
$PGRME,2.6,M,3.8,M,5.1,M*25
$PGRMZ,369,f,3*17
$PGRMM,NAD83*29
$GPRTE,1,1,c,*37
$SDDPT,18.16,0.00*69
$SDMTW,20.6,C*00
$GPRMC,122645,A,4447.3784,N,06350.4964,W,7.4,29.8,070916,19.2,W,D*1F
$GPGGA,122645,4447.3784,N,06350.4964,W,2,10,1.0,112.3,M,-23.5,M,,*79
$PGRME,2.6,M,3.8,M,5.1,M*25
$PGRMZ,368,f,3*16
$PGRMM,NAD83*29
$GPRTE,1,1,c,*37
$SDDPT,18.13,0.00*6C
$SDMTW,20.6,C*00
$GPRMC,122647,A,4447.3819,N,06350.4935,W,7.4,31.5,070916,19.2,W,D*16
$GPGGA,122647,4447.3819,N,06350.4935,W,2,10,1.0,112.4,M,-23.5,M,,*73
$PGRME,2.6,M,3.8,M,5.1,M*25
$PGRMZ,369,f,3*17
$PGRMM,NAD83*29
$GPRTE,1,1,c,*37
$SDDPT,18.63,0.00*6B
$SDMTW,20.6,C*00
$GPRMC,122649,A,4447.3853,N,06350.4903,W,7.4,33.6,070916,19.2,W,D*12
$GPGGA,122649,4447.3853,N,06350.4903,W,2,10,1.0,112.5,M,-23.5,M,,*77
$PGRME,2.6,M,3.8,M,5.1,M*25
$PGRMZ,369,f,3*17
$PGRMM,NAD83*29
$GPRTE,1,1,c,*37
$SDDPT,18.62,0.00*6A
$SDMTW,20.6,C*00
$GPRMC,122651,A,4447.3887,N,06350.4869,W,7.4,34.9,070916,19.2,W,D*17
$GPGGA,122651,4447.3887,N,06350.4869,W,2,10,1.0,112.6,M,-23.5,M,,*79
$PGRME,2.6,M,3.8,M,5.1,M*25
$PGRMZ,370,f,3*1F
$PGRMM,NAD83*29
$GPRTE,1,1,c,*37
$SDDPT,18.48,0.00*62
$SDMTW,20.6,C*00
$GPRMC,122653,A,4447.3920,N,06350.4836,W,7.4,36.2,070916,19.2,W,D*1A
$GPGGA,122653,4447.3920,N,06350.4836,W,2,10,1.0,112.5,M,-23.5,M,,*7E
$PGRME,2.6,M,3.8,M,5.1,M*25
$PGRMZ,369,f,3*17
$PGRMM,NAD83*29
$GPRTE,1,1,c,*37
$SDDPT,18.36,0.00*6B
$SDMTW,20.6,C*00
$GPRMC,122655,A,4447.3953,N,06350.4802,W,7.5,36.5,070916,19.2,W,D*19
$GPGGA,122655,4447.3953,N,06350.4802,W,2,10,1.0,112.5,M,-23.5,M,,*7B
$PGRME,2.6,M,3.8,M,5.1,M*25
$PGRMZ,369,f,3*17
$PGRMM,NAD83*29
$GPRTE,1,1,c,*37
$SDDPT,18.26,0.00*6A
$SDMTW,20.6,C*00
$GPRMC,122657,A,4447.3985,N,06350.4767,W,7.4,38.2,070916,19.2,W,D*14
$GPGGA,122657,4447.3985,N,06350.4767,W,2,10,1.0,112.4,M,-23.5,M,,*7F
$PGRME,2.6,M,3.8,M,5.1,M*25
$PGRMZ,369,f,3*17
$PGRMM,NAD83*29
$GPRTE,1,1,c,*37
$SDDPT,17.71,0.00*67
$SDMTW,20.6,C*00
$GPRMC,122659,A,4447.4018,N,06350.4730,W,7.5,38.7,070916,19.2,W,D*16
$GPGGA,122659,4447.4018,N,06350.4730,W,2,10,1.0,112.4,M,-23.5,M,,*79
$PGRME,2.6,M,3.8,M,5.1,M*25
$PGRMZ,369,f,3*17
$PGRMM,NAD83*29
$GPRTE,1,1,c,*37
$SDDPT,17.67,0.00*60
$SDMTW,20.6,C*00
$GPRMC,122701,A,4447.4051,N,06350.4692,W,7.4,40.1,070916,19.2,W,D*16
$GPGGA,122701,4447.4051,N,06350.4692,W,2,10,1.0,112.3,M,-23.5,M,,*76
$PGRME,2.6,M,3.8,M,5.1,M*25
$PGRMZ,369,f,3*17
$PGRMM,NAD83*29
$GPRTE,1,1,c,*37
$SDDPT,18.06,0.00*68
$SDMTW,20.6,C*00
$GPRMC,122703,A,4447.4082,N,06350.4653,W,7.5,40.4,070916,19.2,W,D*13
$GPGGA,122703,4447.4082,N,06350.4653,W,2,10,1.0,112.1,M,-23.5,M,,*75
$PGRME,2.6,M,3.8,M,5.1,M*25
$PGRMZ,368,f,3*16
$PGRMM,NAD83*29
$GPRTE,1,1,c,*37
$SDDPT,18.22,0.00*6E
$SDMTW,20.6,C*00
$GPRMC,122705,A,4447.4114,N,06350.4616,W,7.5,40.6,070916,19.2,W,D*18
$GPGGA,122705,4447.4114,N,06350.4616,W,2,10,1.0,112.1,M,-23.5,M,,*7C
$PGRME,2.6,M,3.8,M,5.1,M*25
$PGRMZ,368,f,3*16
$PGRMM,NAD83*29
$GPRTE,1,1,c,*37
$SDDPT,18.41,0.00*6B
$SDMTW,20.6,C*00
$GPRMC,122707,A,4447.4144,N,06350.4577,W,7.5,41.6,070916,19.2,W,D*1A
$GPGGA,122707,4447.4144,N,06350.4577,W,2,10,1.0,112.0,M,-23.5,M,,*7E
$PGRME,2.6,M,3.8,M,5.1,M*25
$PGRMZ,367,f,3*19
$PGRMM,NAD83*29
$GPRTE,1,1,c,*37
$SDDPT,18.81,0.00*67
$SDMTW,20.6,C*00
$GPRMC,122709,A,4447.4175,N,06350.4539,W,7.5,41.3,070916,19.2,W,D*19
$GPGGA,122709,4447.4175,N,06350.4539,W,2,10,1.0,111.9,M,-23.5,M,,*72
$PGRME,2.6,M,3.8,M,5.1,M*25
$PGRMZ,367,f,3*19
$PGRMM,NAD83*29
$GPRTE,1,1,c,*37
$SDDPT,18.92,0.00*65
$SDMTW,20.6,C*00
$GPRMC,122711,A,4447.4206,N,06350.4499,W,7.4,41.8,070916,19.2,W,D*16
$GPGGA,122711,4447.4206,N,06350.4499,W,2,10,1.0,111.9,M,-23.5,M,,*77
$PGRME,2.6,M,3.8,M,5.1,M*25
$PGRMZ,367,f,3*19
$PGRMM,NAD83*29
$GPRTE,1,1,c,*37
$SDDPT,19.78,0.00*60
$SDMTW,20.6,C*00
$GPRMC,122713,A,4447.4236,N,06350.4460,W,7.5,41.6,070916,19.2,W,D*1E
$GPGGA,122713,4447.4236,N,06350.4460,W,2,10,1.0,111.9,M,-23.5,M,,*70
$PGRME,2.6,M,3.8,M,5.1,M*25
$PGRMZ,367,f,3*19
$PGRMM,NAD83*29
$GPRTE,1,1,c,*37
$SDDPT,20.05,0.00*60
$SDMTW,20.6,C*00
$GPRMC,122715,A,4447.4266,N,06350.4420,W,7.5,41.1,070916,19.2,W,D*1E
$GPGGA,122715,4447.4266,N,06350.4420,W,2,10,1.0,111.9,M,-23.5,M,,*77
$PGRME,2.6,M,3.8,M,5.1,M*25
$PGRMZ,367,f,3*19
$PGRMM,NAD83*29
$GPRTE,1,1,c,*37
$SDDPT,20.31,0.00*67
$SDMTW,20.6,C*00
$GPRMC,122717,A,4447.4297,N,06350.4382,W,7.5,41.3,070916,19.2,W,D*1F
$GPGGA,122717,4447.4297,N,06350.4382,W,2,10,1.0,111.9,M,-23.5,M,,*74
$PGRME,2.6,M,3.8,M,5.1,M*25
$PGRMZ,367,f,3*19
$PGRMM,NAD83*29
$GPRTE,1,1,c,*37
$SDDPT,20.53,0.00*63
$SDMTW,20.6,C*00
$GPRMC,122719,A,4447.4328,N,06350.4343,W,7.5,41.1,070916,19.2,W,D*1B
$GPGGA,122719,4447.4328,N,06350.4343,W,2,10,1.0,112.0,M,-23.5,M,,*78
$PGRME,2.6,M,3.8,M,5.1,M*25
$PGRMZ,367,f,3*19
$PGRMM,NAD83*29
$GPRTE,1,1,c,*37
$SDDPT,20.45,0.00*64
$SDMTW,20.6,C*00
$GPRMC,122721,A,4447.4359,N,06350.4303,W,7.4,41.5,070916,19.2,W,D*17
$GPGGA,122721,4447.4359,N,06350.4303,W,2,10,1.0,112.0,M,-23.5,M,,*71
$PGRME,2.6,M,3.8,M,5.1,M*25
$PGRMZ,367,f,3*19
$PGRMM,NAD83*29
$GPRTE,1,1,c,*37
$SDDPT,20.17,0.00*63
$SDMTW,20.6,C*00
$GPRMC,122723,A,4447.4391,N,06350.4263,W,7.5,40.9,070916,19.2,W,D*1A
$GPGGA,122723,4447.4391,N,06350.4263,W,2,10,1.0,112.0,M,-23.5,M,,*70
$PGRME,2.6,M,3.8,M,5.1,M*25
$PGRMZ,368,f,3*16
$PGRMM,NAD83*29
$GPRTE,1,1,c,*37
$SDDPT,20.21,0.00*66
$SDMTW,20.6,C*00
$GPRMC,122725,A,4447.4422,N,06350.4225,W,7.5,40.9,070916,19.2,W,D*11
$GPGGA,122725,4447.4422,N,06350.4225,W,2,10,1.0,111.9,M,-23.5,M,,*71
$PGRME,2.6,M,3.8,M,5.1,M*25
$PGRMZ,367,f,3*19
$PGRMM,NAD83*29
$GPRTE,1,1,c,*37
$SDDPT,19.51,0.00*6B
$SDMTW,20.6,C*00
$GPRMC,122727,A,4447.4452,N,06350.4187,W,7.4,40.0,070916,19.2,W,D*17
$GPGGA,122727,4447.4452,N,06350.4187,W,2,10,1.0,111.9,M,-23.5,M,,*7F
$PGRME,2.6,M,3.8,M,5.1,M*25
$PGRMZ,367,f,3*19
$PGRMM,NAD83*29
$GPRTE,1,1,c,*37
$SDDPT,19.16,0.00*68
$SDMTW,20.6,C*00
$GPRMC,122729,A,4447.4484,N,06350.4149,W,7.4,39.7,070916,19.2,W,D*19
$GPGGA,122729,4447.4484,N,06350.4149,W,2,10,1.0,111.9,M,-23.5,M,,*78
$PGRME,2.6,M,3.8,M,5.1,M*25
$PGRMZ,367,f,3*19
$PGRMM,NAD83*29
$GPRTE,1,1,c,*37
$SDDPT,18.82,0.00*64
$SDMTW,20.6,C*00
$GPRMC,122731,A,4447.4518,N,06350.4112,W,7.5,38.9,070916,19.2,W,D*14
$GPGGA,122731,4447.4518,N,06350.4112,W,2,10,1.0,112.0,M,-23.5,M,,*71
$PGRME,2.6,M,3.8,M,5.1,M*25
$PGRMZ,367,f,3*19
$PGRMM,NAD83*29
$GPRTE,1,1,c,*37
$SDDPT,18.88,0.00*6E
$SDMTW,20.6,C*00
$GPRMC,122733,A,4447.4550,N,06350.4075,W,7.5,38.2,070916,19.2,W,D*11
$GPGGA,122733,4447.4550,N,06350.4075,W,2,10,1.0,112.1,M,-23.5,M,,*7E
$PGRME,2.6,M,3.8,M,5.1,M*25
$PGRMZ,368,f,3*16
$PGRMM,NAD83*29
$GPRTE,1,1,c,*37
$SDDPT,19.09,0.00*66
$SDMTW,20.6,C*00
$GPRMC,122735,A,4447.4582,N,06350.4039,W,7.4,37.9,070916,19.2,W,D*15
$GPGGA,122735,4447.4582,N,06350.4039,W,2,10,1.0,112.0,M,-23.5,M,,*7E
$PGRME,2.6,M,3.8,M,5.1,M*25
$PGRMZ,367,f,3*19
$PGRMM,NAD83*29
$GPRTE,1,1,c,*37
$SDDPT,19.73,0.00*6B
$SDMTW,20.6,C*00
$GPRMC,122737,A,4447.4614,N,06350.4005,W,7.5,37.0,070916,19.2,W,D*1C
$GPGGA,122737,4447.4614,N,06350.4005,W,2,10,1.0,111.8,M,-23.5,M,,*74
$PGRME,2.6,M,3.8,M,5.1,M*25
$PGRMZ,367,f,3*19
$PGRMM,NAD83*29
$GPRTE,1,1,c,*37
$SDDPT,19.77,0.00*6F
$SDMTW,20.6,C*00
$GPRMC,122739,A,4447.4647,N,06350.3971,W,7.5,36.4,070916,19.2,W,D*1C
$GPGGA,122739,4447.4647,N,06350.3971,W,2,10,1.0,111.9,M,-23.5,M,,*70
$PGRME,2.6,M,3.8,M,5.1,M*25
$PGRMZ,367,f,3*19
$PGRMM,NAD83*29
$GPRTE,1,1,c,*37
$SDDPT,19.63,0.00*6A
$SDMTW,20.6,C*00
$GPRMC,122741,A,4447.4680,N,06350.3936,W,7.5,36.1,070916,19.2,W,D*1E
$GPGGA,122741,4447.4680,N,06350.3936,W,2,10,1.0,111.8,M,-23.5,M,,*76
$PGRME,2.6,M,3.8,M,5.1,M*25
$PGRMZ,367,f,3*19
$PGRMM,NAD83*29
$GPRTE,1,1,c,*37
$SDDPT,19.32,0.00*6E
$SDMTW,20.6,C*00
$GPRMC,122743,A,4447.4714,N,06350.3902,W,7.5,35.4,070916,19.2,W,D*11
$GPGGA,122743,4447.4714,N,06350.3902,W,2,10,1.0,111.9,M,-23.5,M,,*7E
$PGRME,2.6,M,3.8,M,5.1,M*25
$PGRMZ,367,f,3*19
$PGRMM,NAD83*29
$GPRTE,1,1,c,*37
$SDDPT,18.89,0.00*6F
$SDMTW,20.6,C*00
$GPRMC,122745,A,4447.4749,N,06350.3867,W,7.5,34.7,070916,19.2,W,D*1F
$GPGGA,122745,4447.4749,N,06350.3867,W,2,10,1.0,112.0,M,-23.5,M,,*78
$PGRME,2.6,M,3.8,M,5.1,M*25
$PGRMZ,368,f,3*16
$PGRMM,NAD83*29
$GPRTE,1,1,c,*37
$SDDPT,18.26,0.00*6A
$SDMTW,20.6,C*00
$GPRMC,122747,A,4447.4783,N,06350.3835,W,7.5,34.4,070916,19.2,W,D*1F
$GPGGA,122747,4447.4783,N,06350.3835,W,2,10,1.0,112.1,M,-23.5,M,,*7A
$PGRME,2.6,M,3.8,M,5.1,M*25
$PGRMZ,368,f,3*16
$PGRMM,NAD83*29
$GPRTE,1,1,c,*37
$SDDPT,19.17,0.00*69
$SDMTW,20.6,C*00
$GPRMC,122749,A,4447.4816,N,06350.3803,W,7.5,33.6,070916,19.2,W,D*12
$GPGGA,122749,4447.4816,N,06350.3803,W,2,10,1.0,112.1,M,-23.5,M,,*72
$PGRME,2.6,M,3.8,M,5.1,M*25
$PGRMZ,368,f,3*16
$PGRMM,NAD83*29
$GPRTE,1,1,c,*37
$SDDPT,17.28,0.00*6B
$SDMTW,20.6,C*00
$GPRMC,122751,A,4447.4850,N,06350.3772,W,7.5,32.9,070916,19.2,W,D*1E
$GPGGA,122751,4447.4850,N,06350.3772,W,2,10,1.0,112.2,M,-23.5,M,,*73
$PGRME,2.6,M,3.8,M,5.1,M*25
$PGRMZ,368,f,3*16
$PGRMM,NAD83*29
$GPRTE,1,1,c,*37
$SDDPT,17.83,0.00*6A
$SDMTW,20.6,C*00
$GPRMC,122753,A,4447.4886,N,06350.3741,W,7.5,32.8,070916,19.2,W,D*16
$GPGGA,122753,4447.4886,N,06350.3741,W,2,10,1.0,112.3,M,-23.5,M,,*7B
$PGRME,2.6,M,3.8,M,5.1,M*25
$PGRMZ,369,f,3*17
$PGRMM,NAD83*29
$GPRTE,1,1,c,*37
$SDDPT,18.74,0.00*6D
$SDMTW,20.6,C*00
$GPRMC,122755,A,4447.4922,N,06350.3710,W,7.5,31.3,070916,19.2,W,D*13
$GPGGA,122755,4447.4922,N,06350.3710,W,2,10,1.0,112.4,M,-23.5,M,,*71
$PGRME,2.6,M,3.8,M,5.1,M*25
$PGRMZ,369,f,3*17
$PGRMM,NAD83*29
$GPRTE,1,1,c,*37
$SDDPT,19.25,0.00*68
$SDMTW,20.6,C*00
$GPRMC,122757,A,4447.4956,N,06350.3681,W,7.5,31.0,070916,19.2,W,D*18
$GPGGA,122757,4447.4956,N,06350.3681,W,2,10,1.0,112.3,M,-23.5,M,,*7E
$PGRME,2.6,M,3.8,M,5.1,M*25
$PGRMZ,368,f,3*16
$PGRMM,NAD83*29
$GPRTE,1,1,c,*37
$SDDPT,19.83,0.00*64
$SDMTW,20.6,C*00
$GPRMC,122759,A,4447.4991,N,06350.3653,W,7.4,31.0,070916,19.2,W,D*13
$GPGGA,122759,4447.4991,N,06350.3653,W,2,10,1.0,112.2,M,-23.5,M,,*75
$PGRME,2.6,M,3.8,M,5.1,M*25
$PGRMZ,368,f,3*16
$PGRMM,NAD83*29
$GPRTE,1,1,c,*37
$SDDPT,20.51,0.00*61
$SDMTW,20.6,C*00
$GPRMC,122801,A,4447.5026,N,06350.3623,W,7.5,30.0,070916,19.2,W,D*12
$GPGGA,122801,4447.5026,N,06350.3623,W,2,10,1.0,112.3,M,-23.5,M,,*75
$PGRME,2.6,M,3.8,M,5.1,M*25
$PGRMZ,369,f,3*17
$PGRMM,NAD83*29
$GPRTE,1,1,c,*37
$SDDPT,21.10,0.00*65
$SDMTW,20.6,C*00
$GPRMC,122803,A,4447.5061,N,06350.3595,W,7.5,29.4,070916,19.2,W,D*11
$GPGGA,122803,4447.5061,N,06350.3595,W,2,10,1.0,112.5,M,-23.5,M,,*7C
$PGRME,2.6,M,3.8,M,5.1,M*25
$PGRMZ,369,f,3*17
$PGRMM,NAD83*29
$GPRTE,1,1,c,*37
$SDDPT,21.67,0.00*65
$SDMTW,20.6,C*00
$GPRMC,122805,A,4447.5098,N,06350.3565,W,7.6,28.6,070916,19.2,W,D*1E
$GPGGA,122805,4447.5098,N,06350.3565,W,2,10,1.0,112.7,M,-23.5,M,,*71
$PGRME,2.6,M,3.8,M,5.1,M*25
$PGRMZ,370,f,3*1F
$PGRMM,NAD83*29
$GPRTE,1,1,c,*37
$SDDPT,22.06,0.00*61
$SDMTW,20.6,C*00
$GPRMC,122807,A,4447.5134,N,06350.3537,W,7.4,28.3,070916,19.2,W,D*1B
$GPGGA,122807,4447.5134,N,06350.3537,W,2,10,1.0,112.7,M,-23.5,M,,*73
$PGRME,2.6,M,3.8,M,5.1,M*25
$PGRMZ,370,f,3*1F
$PGRMM,NAD83*29
$GPRTE,1,1,c,*37
$SDDPT,22.43,0.00*60
$SDMTW,20.6,C*00
$GPRMC,122809,A,4447.5171,N,06350.3511,W,7.5,27.2,070916,19.2,W,D*1F
$GPGGA,122809,4447.5171,N,06350.3511,W,2,10,1.0,112.6,M,-23.5,M,,*79
$PGRME,2.6,M,3.8,M,5.1,M*25
$PGRMZ,369,f,3*17
$PGRMM,NAD83*29
$GPRTE,1,1,c,*37
$SDDPT,22.61,0.00*60
$SDMTW,20.6,C*00
$GPRMC,122811,A,4447.5208,N,06350.3485,W,7.5,26.8,070916,19.2,W,D*1C
$GPGGA,122811,4447.5208,N,06350.3485,W,2,10,1.0,112.5,M,-23.5,M,,*72
$PGRME,2.6,M,3.8,M,5.1,M*25
$PGRMZ,369,f,3*17
$PGRMM,NAD83*29
$GPRTE,1,1,c,*37
$SDDPT,22.70,0.00*60
$SDMTW,20.6,C*00
$GPRMC,122813,A,4447.5245,N,06350.3459,W,7.5,26.1,070916,19.2,W,D*1F
$GPGGA,122813,4447.5245,N,06350.3459,W,2,10,1.0,112.5,M,-23.5,M,,*78
$PGRME,2.6,M,3.8,M,5.1,M*25
$PGRMZ,369,f,3*17
$PGRMM,NAD83*29
$GPRTE,1,1,c,*37
$SDDPT,22.83,0.00*6C
$SDMTW,20.6,C*00
$GPRMC,122815,A,4447.5282,N,06350.3433,W,7.5,26.2,070916,19.2,W,D*1D
$GPGGA,122815,4447.5282,N,06350.3433,W,2,10,1.0,112.7,M,-23.5,M,,*7B
$PGRME,2.6,M,3.8,M,5.1,M*25
$PGRMZ,370,f,3*1F
$PGRMM,NAD83*29
$GPRTE,1,1,c,*37
$SDDPT,23.01,0.00*67
$SDMTW,20.6,C*00
$GPRMC,122817,A,4447.5321,N,06350.3407,W,7.4,25.3,070916,19.2,W,D*13
$GPGGA,122817,4447.5321,N,06350.3407,W,2,10,1.0,112.7,M,-23.5,M,,*76
$PGRME,2.6,M,3.8,M,5.1,M*25
$PGRMZ,370,f,3*1F
$PGRMM,NAD83*29
$GPRTE,1,1,c,*37
$SDDPT,23.15,0.00*62
$SDMTW,20.6,C*00
$GPRMC,122819,A,4447.5359,N,06350.3384,W,7.5,24.2,070916,19.2,W,D*1F
$GPGGA,122819,4447.5359,N,06350.3384,W,2,10,1.0,112.5,M,-23.5,M,,*79
$PGRME,2.6,M,3.8,M,5.1,M*25
$PGRMZ,369,f,3*17
$PGRMM,NAD83*29
$GPRTE,1,1,c,*37
$SDDPT,23.26,0.00*62
$SDMTW,20.6,C*00
$GPRMC,122821,A,4447.5397,N,06350.3360,W,7.5,23.8,070916,19.2,W,D*11
$GPGGA,122821,4447.5397,N,06350.3360,W,2,10,1.0,112.5,M,-23.5,M,,*7A
$PGRME,2.6,M,3.8,M,5.1,M*25
$PGRMZ,369,f,3*17
$PGRMM,NAD83*29
$GPRTE,1,1,c,*37
$SDDPT,23.43,0.00*61
$SDMTW,20.6,C*00
$GPRMC,122823,A,4447.5436,N,06350.3337,W,7.5,23.2,070916,19.2,W,D*17
$GPGGA,122823,4447.5436,N,06350.3337,W,2,10,1.0,112.6,M,-23.5,M,,*75
$PGRME,2.6,M,3.8,M,5.1,M*25
$PGRMZ,369,f,3*17
$PGRMM,NAD83*29
$GPRTE,1,1,c,*37
$SDDPT,23.65,0.00*65
$SDMTW,20.6,C*00
$GPRMC,122825,A,4447.5474,N,06350.3315,W,7.5,22.5,070916,19.2,W,D*11
$GPGGA,122825,4447.5474,N,06350.3315,W,2,10,1.0,112.8,M,-23.5,M,,*7B
$PGRME,2.6,M,3.8,M,5.1,M*25
$PGRMZ,370,f,3*1F
$PGRMM,NAD83*29
$GPRTE,1,1,c,*37
$SDDPT,23.83,0.00*6D
$SDMTW,20.6,C*00
$GPRMC,122827,A,4447.5513,N,06350.3293,W,7.5,21.8,070916,19.2,W,D*12
$GPGGA,122827,4447.5513,N,06350.3293,W,2,10,1.0,113.1,M,-23.5,M,,*7E
$PGRME,2.6,M,3.8,M,5.1,M*25
$PGRMZ,371,f,3*1E
$PGRMM,NAD83*29
$GPRTE,1,1,c,*37
$SDDPT,22.67,0.00*66
$SDMTW,20.6,C*00
